City_ID,City,Country,Date,Lat,Lng,Max Temp,Humidity,Cloudiness,Wind Speed,Current Description,Rain inches (last 3 hrs),Snow inches (last 3 hrs)
0,Concordia,AR,2020-02-24 00:10:27,-31.39,-58.02,69.35,52,0,4.34,clear sky,0.0,0.0
1,Victoria,HK,2020-02-24 00:06:18,22.29,114.16,70.0,68,20,20.8,few clouds,0.0,0.0
2,Pedro Leopoldo,BR,2020-02-24 00:10:27,-19.62,-44.04,71.6,88,75,11.41,broken clouds,0.0,0.0
3,Brookhaven,US,2020-02-24 00:10:28,31.58,-90.44,60.8,82,90,4.34,overcast clouds,0.0,0.0
4,Santa Rosa,PH,2020-02-24 00:07:00,14.31,121.11,82.0,78,20,2.24,few clouds,0.0,0.0
5,Sungairaya,ID,2020-02-24 00:10:28,0.7,108.9,75.43,94,75,4.81,broken clouds,0.0,0.0
6,Souillac,MU,2020-02-24 00:10:28,-20.52,57.52,73.99,94,20,4.7,few clouds,0.0,0.0
7,Tuktoyaktuk,CA,2020-02-24 00:10:28,69.45,-133.04,-5.8,76,75,13.87,light snow,0.0,0.0
8,Naze,JP,2020-02-24 00:10:28,28.37,129.48,59.0,82,0,2.24,clear sky,0.0,0.0
9,Mataura,NZ,2020-02-24 00:10:29,-46.19,168.86,66.63,62,89,2.3,overcast clouds,0.0,0.0
10,Sao Filipe,CV,2020-02-24 00:06:15,14.9,-24.5,67.91,82,13,9.89,few clouds,0.0,0.0
11,Solnechnyy,RU,2020-02-24 00:10:29,50.72,136.63,9.34,88,24,1.86,few clouds,0.0,0.0
12,Piqua,US,2020-02-24 00:10:29,40.14,-84.24,48.2,56,1,11.41,clear sky,0.0,0.0
13,Rikitea,PF,2020-02-24 00:09:59,-23.12,-134.97,80.26,67,3,7.27,light rain,0.13,0.0
14,Chokurdakh,RU,2020-02-24 00:09:56,70.63,147.92,-21.73,98,83,3.02,broken clouds,0.0,0.0
15,Kapaa,US,2020-02-24 00:10:28,22.08,-159.32,80.6,57,1,10.29,clear sky,0.0,0.0
16,Luau,AO,2020-02-24 00:10:30,-10.71,22.22,65.88,98,100,5.21,light rain,0.12,0.0
17,Arraial Do Cabo,BR,2020-02-24 00:10:30,-22.97,-42.03,75.99,68,100,9.28,overcast clouds,0.0,0.0
18,Srednekolymsk,RU,2020-02-24 00:10:30,67.45,153.68,-19.12,96,83,1.7,broken clouds,0.0,0.0
19,Phalodi,IN,2020-02-24 00:10:31,27.13,72.37,64.9,46,0,8.21,clear sky,0.0,0.0
20,Hilo,US,2020-02-24 00:09:54,19.73,-155.09,80.6,61,1,17.22,clear sky,0.0,0.0
21,Hobart,AU,2020-02-24 00:05:48,-42.88,147.33,66.99,63,75,5.82,broken clouds,0.0,0.0
22,Dawlatabad,AF,2020-02-24 00:06:06,36.41,64.91,49.75,88,80,1.45,broken clouds,0.0,0.0
23,Henties Bay,NA,2020-02-24 00:10:31,-22.12,14.28,64.0,94,29,3.0,scattered clouds,0.0,0.0
24,Ushuaia,AR,2020-02-24 00:10:31,-54.8,-68.3,44.6,87,75,23.04,moderate rain,0.0,0.0
25,Tasiilaq,GL,2020-02-24 00:10:32,65.61,-37.64,12.2,56,72,5.82,broken clouds,0.0,0.0
26,Khatanga,RU,2020-02-24 00:10:32,71.97,102.5,16.79,92,96,16.58,light snow,0.0,0.25
27,Bell Ville,AR,2020-02-24 00:10:32,-32.63,-62.69,70.2,33,0,5.93,clear sky,0.0,0.0
28,Ugoofaaru,MV,2020-02-24 00:07:13,5.67,73.0,83.08,76,40,18.97,scattered clouds,0.0,0.0
29,Hermanus,ZA,2020-02-24 00:10:32,-34.42,19.23,64.99,73,0,8.99,clear sky,0.0,0.0
30,Miyako,JP,2020-02-24 00:10:33,39.64,141.95,40.3,47,0,3.6,clear sky,0.0,0.0
31,Atuona,PF,2020-02-24 00:09:55,-9.8,-139.03,81.54,77,13,12.01,few clouds,0.0,0.0
32,Walvis Bay,NA,2020-02-24 00:10:33,-22.96,14.51,64.0,93,6,6.93,clear sky,0.0,0.0
33,Darhan,MN,2020-02-24 00:10:33,49.49,105.92,9.55,85,100,5.35,overcast clouds,0.0,0.0
34,Avarua,CK,2020-02-24 00:09:56,-21.21,-159.78,77.0,100,100,11.41,heavy intensity rain,0.0,0.0
35,Saint-Philippe,RE,2020-02-24 00:10:34,-21.36,55.77,75.2,69,6,6.93,clear sky,0.0,0.0
36,Albany,US,2020-02-24 00:09:57,42.6,-73.97,41.0,35,1,3.36,clear sky,0.0,0.0
37,Carnarvon,AU,2020-02-24 00:10:34,-24.87,113.63,73.4,88,0,4.7,clear sky,0.0,0.0
38,Ancud,CL,2020-02-24 00:10:34,-41.87,-73.82,55.4,71,90,9.17,overcast clouds,0.0,0.0
39,Punta Arenas,CL,2020-02-24 00:10:34,-53.15,-70.92,48.2,76,75,25.28,light intensity shower rain,0.0,0.0
40,Abu Dhabi,AE,2020-02-24 00:10:35,24.47,54.37,73.4,78,43,2.24,scattered clouds,0.0,0.0
41,Sobreira,PT,2020-02-24 00:10:35,41.52,-7.8,46.99,70,0,1.99,clear sky,0.0,0.0
42,Port Alfred,ZA,2020-02-24 00:09:55,-33.59,26.89,60.01,81,31,1.32,scattered clouds,0.0,0.0
43,Atagay,RU,2020-02-24 00:10:35,55.1,99.39,3.0,96,29,3.02,scattered clouds,0.0,0.0
44,Qaanaaq,GL,2020-02-24 00:10:00,77.48,-69.36,-19.88,64,0,6.44,clear sky,0.0,0.0
45,Talnakh,RU,2020-02-24 00:10:36,69.49,88.4,17.6,92,75,31.32,snow,0.0,0.0
46,Zabaykalsk,RU,2020-02-24 00:10:36,49.63,117.32,4.73,87,0,6.91,clear sky,0.0,0.0
47,Saskylakh,RU,2020-02-24 00:10:36,71.92,114.08,6.1,92,98,8.97,overcast clouds,0.0,0.0
48,Yenagoa,NG,2020-02-24 00:07:13,4.92,6.26,80.24,85,100,4.36,overcast clouds,0.0,0.0
49,Saint-Pierre,RE,2020-02-24 00:10:37,-21.34,55.48,75.2,69,6,6.93,clear sky,0.0,0.0
50,Yumen,CN,2020-02-24 00:10:37,40.28,97.2,25.52,53,16,9.15,few clouds,0.0,0.0
51,San Quintin,MX,2020-02-24 00:10:37,30.48,-115.95,58.93,74,0,19.01,clear sky,0.0,0.0
52,Nikolskoye,RU,2020-02-24 00:10:37,59.7,30.79,35.6,95,90,8.95,overcast clouds,0.0,0.0
53,Matagami,CA,2020-02-24 00:10:37,49.75,-77.63,33.8,69,90,10.29,overcast clouds,0.0,0.0
54,Puerto Ayora,EC,2020-02-24 00:06:20,-0.74,-90.35,82.4,78,75,10.29,broken clouds,0.0,0.0
55,Sorland,NO,2020-02-24 00:10:38,67.67,12.69,34.03,64,100,34.0,light snow,0.0,0.31
56,Westport,US,2020-02-24 00:10:38,41.14,-73.36,46.4,48,1,13.87,clear sky,0.0,0.0
57,Ribeira Grande,PT,2020-02-24 00:10:38,38.52,-28.7,56.32,83,39,7.67,scattered clouds,0.0,0.0
58,Dudinka,RU,2020-02-24 00:10:38,69.41,86.18,17.6,92,75,31.32,snow,0.0,0.0
59,Barrow,US,2020-02-24 00:10:39,71.29,-156.79,-22.0,67,1,12.75,clear sky,0.0,0.0
60,Hay River,CA,2020-02-24 00:10:39,60.82,-115.8,-2.2,77,90,6.93,light snow,0.0,0.0
61,Bengkulu,ID,2020-02-24 00:10:39,-3.8,102.27,74.61,86,2,4.76,clear sky,0.0,0.0
62,Bambous Virieux,MU,2020-02-24 00:10:39,-20.34,57.76,73.99,94,20,4.7,few clouds,0.0,0.0
63,Yellowknife,CA,2020-02-24 00:08:16,62.46,-114.35,-4.0,64,20,5.82,few clouds,0.0,0.0
64,Nome,US,2020-02-24 00:10:39,64.5,-165.41,5.0,77,90,10.29,light snow,0.0,0.0
65,Bluff,NZ,2020-02-24 00:10:40,-46.6,168.33,65.03,53,70,5.32,broken clouds,0.0,0.0
66,Norman Wells,CA,2020-02-24 00:10:40,65.28,-126.83,8.6,65,75,6.93,light snow,0.0,0.0
67,Vostok,RU,2020-02-24 00:10:40,46.49,135.88,15.69,86,100,1.92,overcast clouds,0.0,0.0
68,Karakulino,RU,2020-02-24 00:10:40,56.01,53.71,24.49,94,100,17.05,snow,0.0,1.56
69,Grindavik,IS,2020-02-24 00:10:40,63.84,-22.43,32.0,96,90,1.12,light shower snow,0.0,0.0
70,Esik,KZ,2020-02-24 00:10:41,43.36,77.45,33.8,89,90,2.24,mist,0.0,0.0
71,Coahuayana,MX,2020-02-24 00:10:41,18.73,-103.68,84.2,62,20,11.41,few clouds,0.0,0.0
72,Bonavista,CA,2020-02-24 00:10:41,48.65,-53.11,30.0,83,14,13.0,few clouds,0.0,0.0
73,Hasaki,JP,2020-02-24 00:10:41,35.73,140.83,46.99,48,20,3.36,few clouds,0.0,0.0
74,Busselton,AU,2020-02-24 00:10:41,-33.65,115.33,75.0,42,50,17.29,scattered clouds,0.0,0.0
75,Klaksvik,FO,2020-02-24 00:10:42,62.23,-6.59,37.4,59,12,20.8,few clouds,0.0,0.0
76,Dingle,PH,2020-02-24 00:10:42,11.0,122.67,75.72,86,71,12.46,light rain,0.13,0.0
77,Port Lincoln,AU,2020-02-24 00:10:42,-34.73,135.87,73.04,58,0,5.7,clear sky,0.0,0.0
78,Ponta Do Sol,PT,2020-02-24 00:10:42,32.67,-17.1,70.0,55,20,17.22,few clouds,0.0,0.0
79,Jamestown,US,2020-02-24 00:09:57,42.1,-79.24,48.2,28,1,11.41,clear sky,0.0,0.0
80,Cape Town,ZA,2020-02-24 00:09:33,-33.93,18.42,64.99,67,0,16.11,clear sky,0.0,0.0
81,Severo-Kurilsk,RU,2020-02-24 00:10:43,50.68,156.12,25.81,96,100,39.35,snow,0.0,2.31
82,Vaini,TO,2020-02-24 00:10:43,-21.2,-175.2,82.4,88,75,10.29,light intensity shower rain,0.0,0.0
83,Kaitangata,NZ,2020-02-24 00:10:43,-46.28,169.85,64.99,65,98,7.0,overcast clouds,0.0,0.0
84,Mago,RU,2020-02-24 00:10:43,53.25,140.18,1.71,91,75,2.33,broken clouds,0.0,0.0
85,Nabire,ID,2020-02-24 00:10:43,-3.37,135.48,73.63,99,98,0.27,heavy intensity rain,29.13,0.0
86,Castro,BR,2020-02-24 00:10:44,-24.79,-50.01,60.84,86,87,8.93,overcast clouds,0.0,0.0
87,Bredasdorp,ZA,2020-02-24 00:10:44,-34.53,20.04,62.01,76,1,4.7,clear sky,0.0,0.0
88,Hoyanger,NO,2020-02-24 00:10:44,61.22,6.07,37.4,64,100,11.41,light intensity shower rain,0.0,0.0
89,Bay Roberts,CA,2020-02-24 00:06:42,47.6,-53.26,30.99,79,20,18.34,few clouds,0.0,0.0
90,Kodiak,US,2020-02-24 00:10:19,57.79,-152.41,26.6,35,1,12.75,clear sky,0.0,0.0
91,Tiarei,PF,2020-02-24 00:07:21,-17.53,-149.33,87.8,62,20,17.22,few clouds,0.0,0.0
92,Torbay,CA,2020-02-24 00:10:45,47.67,-52.73,30.99,79,20,18.34,few clouds,0.0,0.0
93,Baghdad,IQ,2020-02-24 00:10:45,33.34,44.4,55.4,66,100,6.93,overcast clouds,0.0,0.0
94,Lompoc,US,2020-02-24 00:09:57,34.64,-120.46,66.99,59,1,12.75,clear sky,0.0,0.0
95,Flinders,AU,2020-02-24 00:09:17,-34.58,150.86,81.0,57,18,8.05,few clouds,0.0,0.0
96,New Norfolk,AU,2020-02-24 00:10:46,-42.78,147.06,66.99,63,75,5.82,broken clouds,0.0,0.0
97,Petropavlovsk-Kamchatskiy,RU,2020-02-24 00:10:46,53.05,158.65,26.6,58,40,8.95,scattered clouds,0.0,0.0
98,Odweyne,SO,2020-02-24 00:10:46,9.41,45.06,63.19,43,44,3.4,scattered clouds,0.0,0.0
99,Caravelas,BR,2020-02-24 00:10:47,-17.71,-39.25,79.88,85,100,12.44,light rain,0.63,0.0
100,Sabang,ID,2020-02-24 00:10:47,5.89,95.32,82.09,77,0,25.39,clear sky,0.0,0.0
101,Mumbwa,ZM,2020-02-24 00:10:47,-14.98,27.06,67.23,97,100,2.21,moderate rain,10.19,0.0
102,Qianguo,CN,2020-02-24 00:10:47,45.12,124.86,13.23,85,0,6.76,clear sky,0.0,0.0
103,Bardiyah,LY,2020-02-24 00:10:47,31.76,25.09,54.88,70,21,20.45,light rain,0.63,0.0
104,Morondava,MG,2020-02-24 00:08:22,-20.28,44.28,74.73,95,90,2.71,overcast clouds,0.0,0.0
105,Flums,CH,2020-02-24 00:10:48,47.09,9.34,59.0,51,75,14.99,broken clouds,0.0,0.0
106,Khandyga,RU,2020-02-24 00:10:48,62.67,135.6,-3.89,97,100,3.0,light snow,0.0,0.25
107,Ewa Beach,US,2020-02-24 00:10:48,21.32,-158.01,82.0,78,75,11.41,broken clouds,0.0,0.0
108,Kruisfontein,ZA,2020-02-24 00:06:06,-34.0,24.73,54.19,83,0,3.49,clear sky,0.0,0.0
109,Korla,CN,2020-02-24 00:10:49,41.76,86.15,28.6,42,100,6.38,overcast clouds,0.0,0.0
110,Livingston,GB,2020-02-24 00:10:49,55.9,-3.52,39.0,93,100,3.36,overcast clouds,0.0,0.0
111,Thompson,CA,2020-02-24 00:10:49,55.74,-97.86,15.8,72,90,5.82,overcast clouds,0.0,0.0
112,Chingola,ZM,2020-02-24 00:10:49,-12.53,27.88,65.16,96,100,3.91,light rain,1.06,0.0
113,Panguipulli,CL,2020-02-24 00:10:50,-39.63,-72.33,62.6,72,0,3.36,clear sky,0.0,0.0
114,Dikson,RU,2020-02-24 00:10:50,73.51,80.55,24.82,91,100,27.54,light snow,0.0,0.25
115,Mar Del Plata,AR,2020-02-24 00:10:50,-38.0,-57.56,70.0,68,0,6.93,clear sky,0.0,0.0
116,Rio Cuarto,AR,2020-02-24 00:10:50,-33.13,-64.35,69.8,64,0,13.87,clear sky,0.0,0.0
117,Whitehorse,CA,2020-02-24 00:05:53,60.72,-135.05,24.8,73,75,8.05,broken clouds,0.0,0.0
118,Labuhan,ID,2020-02-24 00:10:51,-6.88,112.21,78.08,90,0,4.68,clear sky,0.0,0.0
119,Nautla,MX,2020-02-24 00:10:51,20.22,-96.78,70.81,87,16,2.55,few clouds,0.0,0.0
120,Murdochville,CA,2020-02-24 00:10:51,48.96,-65.5,21.6,94,73,4.94,broken clouds,0.0,0.0
121,Sao Luiz Gonzaga,BR,2020-02-24 00:10:51,-28.41,-54.96,69.76,61,0,4.47,clear sky,0.0,0.0
122,Namibe,AO,2020-02-24 00:10:51,-15.2,12.15,73.51,81,100,8.1,overcast clouds,0.0,0.0
123,Wattegama,LK,2020-02-24 00:10:52,6.8,81.48,70.88,97,100,5.12,light rain,0.13,0.0
124,Namestovo,SK,2020-02-24 00:10:52,49.41,19.48,50.0,71,75,18.34,broken clouds,0.0,0.0
125,Gimli,CA,2020-02-24 00:07:04,50.63,-96.99,33.01,63,59,5.99,broken clouds,0.0,0.0
126,Porto Novo,BJ,2020-02-24 00:10:52,6.5,2.6,84.2,89,20,9.17,few clouds,0.0,0.0
127,Vao,NC,2020-02-24 00:10:53,-22.67,167.48,78.49,72,51,12.93,broken clouds,0.0,0.0
128,Bahia Honda,CU,2020-02-24 00:10:53,22.9,-83.16,71.94,79,65,16.26,light rain,0.19,0.0
129,Tautira,PF,2020-02-24 00:10:53,-17.73,-149.15,87.8,62,20,17.22,few clouds,0.0,0.0
130,Usinsk,RU,2020-02-24 00:10:53,65.99,57.53,27.39,88,100,27.89,overcast clouds,0.0,0.0
131,Port Elizabeth,ZA,2020-02-24 00:10:53,-33.92,25.57,53.6,87,5,2.24,clear sky,0.0,0.0
132,Killybegs,IE,2020-02-24 00:10:54,54.63,-8.45,34.0,92,100,5.01,moderate rain,3.25,0.0
133,Pitimbu,BR,2020-02-24 00:10:54,-7.47,-34.81,82.4,83,20,10.29,few clouds,0.0,0.0
134,Tura,IN,2020-02-24 00:10:54,25.52,90.22,66.67,49,62,1.72,broken clouds,0.0,0.0
135,Esperance,AU,2020-02-24 00:10:54,-33.87,121.9,68.0,82,90,16.11,overcast clouds,0.0,0.0
136,Jumla,NP,2020-02-24 00:10:54,29.27,82.18,27.93,59,81,4.79,broken clouds,0.0,0.0
137,Saint-Augustin,CA,2020-02-24 00:10:55,51.23,-58.65,15.04,76,53,8.81,broken clouds,0.0,0.0
138,Cidreira,BR,2020-02-24 00:10:55,-30.18,-50.21,72.73,72,3,22.95,clear sky,0.0,0.0
139,Ballina,AU,2020-02-24 00:09:44,-28.87,153.57,71.6,100,100,5.82,moderate rain,7.5,0.0
140,Longyearbyen,SJ,2020-02-24 00:07:36,78.22,15.64,-5.8,83,20,8.05,few clouds,0.0,0.0
141,Nantucket,US,2020-02-24 00:10:11,41.28,-70.1,41.0,86,1,12.75,clear sky,0.0,0.0
142,Sakakah,SA,2020-02-24 00:10:56,29.97,40.21,57.2,35,100,9.17,overcast clouds,0.0,0.0
143,Hamilton,US,2020-02-24 00:10:56,39.18,-84.53,50.0,31,1,6.06,clear sky,0.0,0.0
144,Sawtell,AU,2020-02-24 00:10:56,-30.38,153.1,69.8,94,75,5.82,light rain,0.0,0.0
145,Paamiut,GL,2020-02-24 00:10:46,61.99,-49.67,14.5,57,100,2.73,overcast clouds,0.0,0.0
146,Chuy,UY,2020-02-24 00:10:56,-33.7,-53.46,65.05,72,14,10.65,few clouds,0.0,0.0
147,Brockville,CA,2020-02-24 00:10:56,44.58,-75.68,39.99,48,1,5.82,clear sky,0.0,0.0
148,Aklavik,CA,2020-02-24 00:10:57,68.22,-135.01,-4.0,76,90,5.82,light snow,0.0,0.0
149,Salalah,OM,2020-02-24 00:06:10,17.02,54.09,75.2,73,75,4.7,broken clouds,0.0,0.0
150,Irati,BR,2020-02-24 00:10:57,-25.47,-50.65,63.57,79,46,7.25,scattered clouds,0.0,0.0
151,Butaritari,KI,2020-02-24 00:10:57,3.07,172.79,85.08,74,55,14.45,moderate rain,3.13,0.0
152,Faanui,PF,2020-02-24 00:10:57,-16.48,-151.75,83.05,72,46,12.17,scattered clouds,0.0,0.0
153,Mildura,AU,2020-02-24 00:10:58,-34.2,142.15,80.01,53,55,9.17,broken clouds,0.0,0.0
154,Channel-Port Aux Basques,CA,2020-02-24 00:10:58,47.57,-59.14,30.79,84,22,7.67,few clouds,0.0,0.0
155,Baracoa,CU,2020-02-24 00:10:58,20.35,-74.5,75.09,78,46,20.09,light rain,1.13,0.0
156,Sistranda,NO,2020-02-24 00:10:58,63.73,8.83,35.6,74,75,17.22,shower rain,0.0,0.0
157,Hofn,IS,2020-02-24 00:10:58,64.25,-15.21,40.37,63,80,23.94,broken clouds,0.0,0.0
158,Cururupu,BR,2020-02-24 00:10:59,-1.83,-44.87,74.55,96,40,2.06,scattered clouds,0.0,0.0
159,Mount Gambier,AU,2020-02-24 00:10:59,-37.83,140.77,64.4,82,75,5.82,broken clouds,0.0,0.0
160,Surt,LY,2020-02-24 00:10:59,31.21,16.59,52.52,70,1,6.8,clear sky,0.0,0.0
161,Kiruna,SE,2020-02-24 00:10:59,67.86,20.23,32.0,80,100,20.8,overcast clouds,0.0,0.0
162,Beringovskiy,RU,2020-02-24 00:07:26,63.05,179.32,-8.32,82,5,3.69,clear sky,0.0,0.0
163,Yurga,RU,2020-02-24 00:06:25,55.72,84.89,11.35,93,0,3.53,clear sky,0.0,0.0
164,Najran,SA,2020-02-24 00:11:00,17.49,44.13,68.0,37,51,0.78,broken clouds,0.0,0.0
165,Kavaratti,IN,2020-02-24 00:11:00,10.57,72.64,81.57,70,90,5.03,overcast clouds,0.0,0.0
166,Ponta Delgada,PT,2020-02-24 00:08:49,37.73,-25.67,57.2,93,40,2.24,scattered clouds,0.0,0.0
167,Sirsa,IN,2020-02-24 00:11:00,29.53,75.02,58.68,58,22,2.59,few clouds,0.0,0.0
168,Lagos,NG,2020-02-24 00:11:01,6.58,3.75,84.2,89,20,6.69,few clouds,0.0,0.0
169,Barabai,ID,2020-02-24 00:06:11,-2.58,115.38,77.65,90,77,1.72,light rain,0.13,0.0
170,Berbera,SO,2020-02-24 00:11:01,10.44,45.01,75.51,76,0,7.92,clear sky,0.0,0.0
171,Finschhafen,PG,2020-02-24 00:11:01,-6.6,147.87,83.05,77,78,11.59,moderate rain,4.06,0.0
172,East London,ZA,2020-02-24 00:07:47,-33.02,27.91,65.52,62,72,3.02,broken clouds,0.0,0.0
173,Port-Gentil,GA,2020-02-24 00:11:02,-0.72,8.78,80.6,94,20,3.36,few clouds,0.0,0.0
174,Sept-Iles,CA,2020-02-24 00:11:02,50.2,-66.38,28.4,92,75,4.7,broken clouds,0.0,0.0
175,Bagdarin,RU,2020-02-24 00:11:02,54.43,113.6,-2.52,84,1,5.86,clear sky,0.0,0.0
176,Cabo San Lucas,MX,2020-02-24 00:08:46,22.89,-109.91,78.8,53,40,11.41,scattered clouds,0.0,0.0
177,Mazamari,PE,2020-02-24 00:11:02,-11.33,-74.53,62.29,96,57,1.59,light rain,0.13,0.0
178,Vila Velha,BR,2020-02-24 00:10:41,-20.33,-40.29,77.0,69,90,6.93,overcast clouds,0.0,0.0
179,Pokosnoye,RU,2020-02-24 00:11:03,55.53,101.05,0.64,99,58,1.81,broken clouds,0.0,0.0
180,Porto Belo,BR,2020-02-24 00:10:04,-27.16,-48.55,75.2,64,75,10.29,broken clouds,0.0,0.0
181,Margate,GB,2020-02-24 00:11:03,51.38,1.39,46.4,58,100,6.51,overcast clouds,0.0,0.0
182,Redcliffe,AU,2020-02-24 00:11:03,-27.23,153.1,77.0,83,75,10.29,broken clouds,0.0,0.0
183,Shinpokh,PK,2020-02-24 00:11:04,34.33,71.18,55.4,76,40,4.7,haze,0.0,0.0
184,Broome,US,2020-02-24 00:11:04,42.25,-75.83,39.99,47,1,5.46,clear sky,0.0,0.0
185,Kanda,JP,2020-02-24 00:11:04,33.78,130.98,46.99,65,0,2.24,clear sky,0.0,0.0
186,Palos Hills,US,2020-02-24 00:11:04,41.7,-87.82,52.0,57,1,5.82,clear sky,0.0,0.0
187,Shubarshi,KZ,2020-02-24 00:11:05,48.59,57.19,19.62,87,69,13.0,broken clouds,0.0,0.0
188,Chicama,PE,2020-02-24 00:11:05,-7.84,-79.15,75.2,83,75,8.05,mist,0.0,0.0
189,Bethel,US,2020-02-24 00:11:05,41.37,-73.41,46.4,35,1,5.06,clear sky,0.0,0.0
190,Cananeia,BR,2020-02-24 00:11:05,-25.01,-47.93,69.1,75,100,3.56,overcast clouds,0.0,0.0
191,Fortuna,US,2020-02-24 00:11:05,40.6,-124.16,53.01,93,90,12.75,light rain,0.0,0.0
192,Bathsheba,BB,2020-02-24 00:11:05,13.22,-59.52,78.8,83,40,13.87,scattered clouds,0.0,0.0
193,Itarema,BR,2020-02-24 00:11:06,-2.92,-39.92,75.81,92,22,4.85,few clouds,0.0,0.0
194,Pedernales,DO,2020-02-24 00:11:06,18.04,-71.74,78.8,78,75,18.34,broken clouds,0.0,0.0
195,Peniche,PT,2020-02-24 00:10:49,39.36,-9.38,64.0,55,0,3.36,clear sky,0.0,0.0
196,Kulhudhuffushi,MV,2020-02-24 00:11:06,6.62,73.07,82.06,74,99,10.94,overcast clouds,0.0,0.0
197,Goshen,US,2020-02-24 00:07:40,41.58,-85.83,51.8,86,1,4.7,clear sky,0.0,0.0
198,Zhezkazgan,KZ,2020-02-24 00:11:07,47.8,67.71,5.02,94,9,4.99,clear sky,0.0,0.0
199,Quatre Cocos,MU,2020-02-24 00:11:07,-20.21,57.76,73.99,94,20,4.7,few clouds,0.0,0.0
200,Upernavik,GL,2020-02-24 00:11:07,72.79,-56.15,-19.39,85,0,4.65,clear sky,0.0,0.0
201,Pacific Grove,US,2020-02-24 00:10:25,36.62,-121.92,62.01,71,90,12.75,overcast clouds,0.0,0.0
202,Ust-Kuyga,RU,2020-02-24 00:11:08,70.02,135.6,-17.46,99,80,6.29,broken clouds,0.0,0.0
203,College,US,2020-02-24 00:06:46,64.86,-147.8,0.0,70,40,4.7,scattered clouds,0.0,0.0
204,Likhoslavl,RU,2020-02-24 00:11:09,57.13,35.46,33.87,87,100,10.63,overcast clouds,0.0,0.0
205,Leh,IN,2020-02-24 00:11:09,34.17,77.58,-7.78,59,0,3.15,clear sky,0.0,0.0
206,Codrington,AU,2020-02-24 00:11:09,-38.27,141.97,62.49,89,90,14.52,overcast clouds,0.0,0.0
207,Hithadhoo,MV,2020-02-24 00:11:10,-0.6,73.08,83.64,77,95,14.9,overcast clouds,0.0,0.0
208,Namatanai,PG,2020-02-24 00:06:48,-3.67,152.43,85.41,72,43,8.93,light rain,0.94,0.0
209,Frutal,BR,2020-02-24 00:10:39,-20.02,-48.94,72.59,93,99,4.99,light rain,1.94,0.0
210,Kilindoni,TZ,2020-02-24 00:11:12,-7.91,39.67,84.18,79,95,15.97,light rain,0.25,0.0
211,Huarmey,PE,2020-02-24 00:07:26,-10.07,-78.15,76.15,62,87,3.74,overcast clouds,0.0,0.0
212,Isiro,CD,2020-02-24 00:11:13,2.77,27.62,71.62,60,7,2.13,clear sky,0.0,0.0
213,Chiredzi,ZW,2020-02-24 00:11:14,-21.05,31.67,68.27,78,100,13.56,overcast clouds,0.0,0.0
214,Luanda,AO,2020-02-24 00:11:14,-8.84,13.23,80.6,83,75,4.7,broken clouds,0.0,0.0
215,Panaba,MX,2020-02-24 00:10:54,21.28,-88.27,73.62,77,67,7.99,broken clouds,0.0,0.0
216,Tiksi,RU,2020-02-24 00:11:14,71.69,128.87,-6.27,85,100,7.61,overcast clouds,0.0,0.0
217,Byron Bay,AU,2020-02-24 00:11:15,-28.65,153.62,75.2,78,90,6.93,overcast clouds,0.0,0.0
218,Constitucion,CL,2020-02-24 00:11:15,-35.33,-72.42,57.15,89,82,8.7,broken clouds,0.0,0.0
219,Tuatapere,NZ,2020-02-24 00:11:16,-46.13,167.68,69.4,39,69,0.98,broken clouds,0.0,0.0
220,Kununurra,AU,2020-02-24 00:11:16,-15.77,128.73,89.6,59,39,8.05,scattered clouds,0.0,0.0
221,Kahului,US,2020-02-24 00:11:16,20.89,-156.47,82.4,83,9,14.99,clear sky,0.0,0.0
222,Kenai,US,2020-02-24 00:11:17,60.55,-151.26,23.0,52,1,6.2,clear sky,0.0,0.0
223,Isilkul,RU,2020-02-24 00:11:17,54.91,71.27,6.33,97,37,3.09,scattered clouds,0.0,0.0
224,Hervey Bay,AU,2020-02-24 00:07:34,-25.3,152.85,82.0,88,75,12.75,broken clouds,0.0,0.0
225,Srivardhan,IN,2020-02-24 00:11:17,18.03,73.02,74.21,44,0,3.89,clear sky,0.0,0.0
226,Brae,GB,2020-02-24 00:11:18,60.4,-1.35,41.0,61,82,17.22,light snow,0.0,0.5
227,Minot,US,2020-02-24 00:08:07,48.23,-101.3,39.2,38,1,13.87,clear sky,0.0,0.0
228,Laguna,US,2020-02-24 00:08:39,38.42,-121.42,68.0,59,1,3.8,clear sky,0.0,0.0
229,Yerbogachen,RU,2020-02-24 00:11:19,61.28,108.01,16.25,90,100,12.33,overcast clouds,0.0,0.0
230,Taunggyi,MM,2020-02-24 00:11:19,20.78,97.03,54.72,68,0,3.47,clear sky,0.0,0.0
231,Gat,IL,2020-02-24 00:11:20,31.61,34.76,53.6,87,40,5.82,scattered clouds,0.0,0.0
232,Batie,BF,2020-02-24 00:11:20,9.88,-2.92,82.06,18,15,6.11,few clouds,0.0,0.0
233,Dryden,CA,2020-02-24 00:11:21,49.78,-92.75,33.8,74,90,16.11,light snow,0.0,0.0
234,Half Moon Bay,US,2020-02-24 00:11:21,37.46,-122.43,64.99,59,40,4.7,scattered clouds,0.0,0.0
235,Pevek,RU,2020-02-24 00:11:21,69.7,170.31,-14.64,99,100,9.55,overcast clouds,0.0,0.0
236,Kodinsk,RU,2020-02-24 00:11:22,58.69,99.18,8.58,96,92,4.38,overcast clouds,0.0,0.0
237,Airai,TL,2020-02-24 00:11:22,-8.93,125.41,75.87,70,0,2.33,clear sky,0.0,0.0
238,Zinacantan,MX,2020-02-24 00:11:22,16.75,-92.7,84.2,45,5,20.8,clear sky,0.0,0.0
239,Gamba,GA,2020-02-24 00:11:22,-2.65,10.0,77.59,93,86,3.65,light rain,0.38,0.0
240,Mattru,SL,2020-02-24 00:11:23,7.62,-11.83,77.86,86,18,1.16,few clouds,0.0,0.0
241,Ixhuatan,MX,2020-02-24 00:11:23,16.36,-94.48,86.11,44,0,4.79,clear sky,0.0,0.0
242,Vila Franca Do Campo,PT,2020-02-24 00:11:23,37.72,-25.43,57.2,93,40,2.24,scattered clouds,0.0,0.0
243,Tutoia,BR,2020-02-24 00:11:24,-2.76,-42.27,75.6,95,82,4.16,broken clouds,0.0,0.0
244,Oktyabrskiy,RU,2020-02-24 00:11:24,54.48,53.47,24.21,91,100,17.52,light snow,0.0,0.69
245,Gigmoto,PH,2020-02-24 00:11:24,13.78,124.39,79.84,79,9,17.22,light rain,1.19,0.0
246,Pillaro,EC,2020-02-24 00:11:24,-1.17,-78.53,71.6,76,75,10.29,broken clouds,0.0,0.0
247,Flin Flon,CA,2020-02-24 00:11:25,54.77,-101.86,35.6,59,75,9.17,broken clouds,0.0,0.0
248,Saint George,US,2020-02-24 00:11:25,37.1,-113.58,59.0,51,1,10.29,clear sky,0.0,0.0
249,Havoysund,NO,2020-02-24 00:11:25,71.0,24.66,32.0,90,75,29.97,broken clouds,0.0,0.0
250,Preobrazheniye,RU,2020-02-24 00:11:25,42.9,133.91,31.73,74,37,7.27,scattered clouds,0.0,0.0
251,Luderitz,NA,2020-02-24 00:11:26,-26.65,15.16,69.26,62,0,16.4,clear sky,0.0,0.0
252,Zyryanka,RU,2020-02-24 00:11:26,65.75,150.85,-8.59,94,100,2.01,overcast clouds,0.0,0.0
253,Jizan,SA,2020-02-24 00:11:26,17.33,42.67,78.8,78,64,3.91,broken clouds,0.0,0.0
254,Pisco,PE,2020-02-24 00:11:26,-13.7,-76.22,75.0,30,75,5.82,broken clouds,0.0,0.0
255,Ketchikan,US,2020-02-24 00:10:18,55.34,-131.65,35.6,98,90,12.75,light rain,0.0,0.0
256,Mabaruma,GY,2020-02-24 00:11:27,8.2,-59.78,73.31,99,42,2.59,light rain,0.63,0.0
257,Orocue,CO,2020-02-24 00:11:27,4.79,-71.34,87.4,42,49,6.35,scattered clouds,0.0,0.0
258,Fairbanks,US,2020-02-24 00:10:32,64.84,-147.72,0.0,70,40,4.7,scattered clouds,0.0,0.0
259,New Waterford,US,2020-02-24 00:11:28,40.85,-80.61,48.2,26,90,6.93,overcast clouds,0.0,0.0
260,Shahr-E Babak,IR,2020-02-24 00:11:28,30.12,55.12,48.11,45,57,4.03,broken clouds,0.0,0.0
261,Ekimchan,RU,2020-02-24 00:11:28,53.07,132.97,4.19,94,100,1.41,light snow,0.0,0.13
262,Leningradskiy,RU,2020-02-24 00:11:28,69.38,178.42,-12.75,73,100,5.48,overcast clouds,0.0,0.0
263,Berlevag,NO,2020-02-24 00:10:25,70.86,29.09,30.2,86,90,8.05,overcast clouds,0.0,0.0
264,Hirara,JP,2020-02-24 00:11:29,24.8,125.28,66.2,82,75,4.7,broken clouds,0.0,0.0
265,Kijang,KR,2020-02-24 00:08:42,35.24,129.21,35.6,69,0,4.7,clear sky,0.0,0.0
266,Roma,US,2020-02-24 00:07:42,43.21,-75.46,42.8,38,1,3.36,clear sky,0.0,0.0
267,Saldanha,ZA,2020-02-24 00:11:30,-33.01,17.94,66.2,52,0,8.05,clear sky,0.0,0.0
268,Lavrentiya,RU,2020-02-24 00:10:04,65.58,-171.0,-5.19,77,0,5.19,clear sky,0.0,0.0
269,Lebu,CL,2020-02-24 00:11:30,-37.62,-73.65,57.33,79,4,7.07,clear sky,0.0,0.0
270,Te Anau,NZ,2020-02-24 00:11:31,-45.42,167.72,60.03,60,1,5.95,clear sky,0.0,0.0
271,Balikpapan,ID,2020-02-24 00:11:31,-1.27,116.83,78.8,83,20,9.17,few clouds,0.0,0.0
272,Sayat,TM,2020-02-24 00:11:31,38.78,63.88,39.2,93,32,2.24,scattered clouds,0.0,0.0
273,Belomorsk,RU,2020-02-24 00:11:31,64.52,34.77,30.11,84,100,12.19,overcast clouds,0.0,0.0
274,Alyangula,AU,2020-02-24 00:11:31,-13.85,136.42,86.0,79,40,17.22,scattered clouds,0.0,0.0
275,Narsaq,GL,2020-02-24 00:11:32,60.92,-46.05,23.0,62,100,14.99,snow,0.0,2.25
276,Ca Mau,VN,2020-02-24 00:07:47,9.18,105.15,75.6,69,1,9.73,clear sky,0.0,0.0
277,Nanortalik,GL,2020-02-24 00:11:34,60.14,-45.24,26.91,87,100,4.5,light snow,0.0,0.81
278,Georgetown,MY,2020-02-24 00:10:20,5.41,100.34,77.0,78,20,3.36,few clouds,0.0,0.0
279,Valleyview,CA,2020-02-24 00:11:34,55.07,-117.29,25.75,89,63,3.47,broken clouds,0.0,0.0
280,Lluta,PE,2020-02-24 00:11:34,-16.01,-72.01,55.4,100,90,6.93,light rain,0.0,0.0
281,Cherskiy,RU,2020-02-24 00:11:34,68.75,161.3,-22.07,87,48,4.94,scattered clouds,0.0,0.0
282,Ola,RU,2020-02-24 00:11:35,59.58,151.28,-3.98,86,40,5.21,scattered clouds,0.0,0.0
283,Iqaluit,CA,2020-02-24 00:11:35,63.75,-68.51,-25.01,60,20,10.29,few clouds,0.0,0.0
284,Praia Da Vitoria,PT,2020-02-24 00:11:35,38.73,-27.07,59.0,82,40,7.58,scattered clouds,0.0,0.0
285,Gornopravdinsk,RU,2020-02-24 00:11:36,60.05,69.9,23.38,94,98,9.55,overcast clouds,0.0,0.0
286,Kazanskaya,RU,2020-02-24 00:11:36,45.41,40.44,41.56,77,100,18.37,overcast clouds,0.0,0.0
287,Hualmay,PE,2020-02-24 00:11:36,-11.1,-77.61,75.38,66,83,5.23,broken clouds,0.0,0.0
288,Tabuk,PH,2020-02-24 00:11:36,17.42,121.44,69.94,90,95,1.86,overcast clouds,0.0,0.0
289,Bilibino,RU,2020-02-24 00:11:36,68.05,166.44,-22.88,91,21,2.28,few clouds,0.0,0.0
290,Sisimiut,GL,2020-02-24 00:11:37,66.94,-53.67,-2.52,81,100,2.64,overcast clouds,0.0,0.0
291,Kapoeta,SS,2020-02-24 00:11:37,4.77,33.59,86.34,32,50,4.68,scattered clouds,0.0,0.0
292,Nelson Bay,AU,2020-02-24 00:11:38,-32.72,152.15,79.0,73,75,16.11,broken clouds,0.0,0.0
293,Meulaboh,ID,2020-02-24 00:11:38,4.14,96.13,80.35,79,2,7.25,clear sky,0.0,0.0
294,Tezu,IN,2020-02-24 00:11:39,27.92,96.17,57.72,61,31,0.78,light rain,0.31,0.0
295,Carutapera,BR,2020-02-24 00:11:39,-1.2,-46.02,82.02,82,75,14.58,broken clouds,0.0,0.0
296,Paranaiba,BR,2020-02-24 00:11:39,-19.68,-51.19,73.72,96,41,5.88,scattered clouds,0.0,0.0
297,Komsomolskiy,UZ,2020-02-24 00:11:40,40.43,71.72,48.2,75,75,6.93,mist,0.0,0.0
298,Harlingen,US,2020-02-24 00:10:45,26.19,-97.7,78.8,57,75,16.11,broken clouds,0.0,0.0
299,Gorom-Gorom,BF,2020-02-24 00:11:40,14.44,-0.24,78.82,11,0,14.41,clear sky,0.0,0.0
300,Buchanan,LR,2020-02-24 00:11:41,5.88,-10.05,78.8,94,20,4.47,few clouds,0.0,0.0
301,Eenhana,NA,2020-02-24 00:11:41,-17.47,16.33,78.8,69,93,2.24,overcast clouds,0.0,0.0
302,San Patricio,MX,2020-02-24 00:11:41,19.22,-104.7,82.4,78,20,11.41,few clouds,0.0,0.0
303,Mahebourg,MU,2020-02-24 00:11:41,-20.41,57.7,73.99,94,20,4.7,few clouds,0.0,0.0
304,Sola,VU,2020-02-24 00:11:42,-13.88,167.55,89.6,70,75,5.82,broken clouds,0.0,0.0
305,Portland,US,2020-02-24 00:08:14,45.52,-122.68,48.99,81,90,12.75,moderate rain,0.0,0.0
306,San Pedro,PH,2020-02-24 00:11:43,14.35,121.02,82.0,78,20,2.24,few clouds,0.0,0.0
307,Smithers,CA,2020-02-24 00:11:43,54.78,-127.17,33.8,55,75,6.93,broken clouds,0.0,0.0
308,Salamiyah,SY,2020-02-24 00:11:43,35.01,37.05,48.52,69,20,3.27,few clouds,0.0,0.0
309,Ilhabela,BR,2020-02-24 00:11:43,-23.78,-45.36,75.85,71,100,16.64,overcast clouds,0.0,0.0
310,Gisborne,NZ,2020-02-24 00:11:44,-38.65,178.0,63.0,71,99,8.99,light rain,0.88,0.0
311,Caceres,ES,2020-02-24 00:11:44,39.52,-6.37,50.0,73,0,3.87,clear sky,0.0,0.0
312,Bangassou,CF,2020-02-24 00:07:04,4.74,22.82,72.34,22,38,3.36,scattered clouds,0.0,0.0
313,Olga,RU,2020-02-24 00:11:44,43.74,135.29,28.74,69,81,8.12,broken clouds,0.0,0.0
314,Lagoa,PT,2020-02-24 00:11:44,39.05,-27.98,60.19,80,48,11.79,scattered clouds,0.0,0.0
315,Kaka,TM,2020-02-24 00:11:44,37.35,59.61,50.63,68,11,7.63,few clouds,0.0,0.0
316,Nuuk,GL,2020-02-24 00:11:45,64.18,-51.72,15.8,78,91,3.36,light snow,0.0,0.0
317,Quirinopolis,BR,2020-02-24 00:11:45,-18.45,-50.45,73.54,95,100,3.94,moderate rain,9.94,0.0
318,Chato,TZ,2020-02-24 00:11:45,-2.64,31.77,73.96,71,100,3.0,overcast clouds,0.0,0.0
319,Port Hedland,AU,2020-02-24 00:11:45,-20.32,118.57,82.4,69,50,3.36,scattered clouds,0.0,0.0
320,Tarko-Sale,RU,2020-02-24 00:11:46,64.92,77.78,21.99,90,100,21.41,light snow,0.0,0.13
321,Ucluelet,CA,2020-02-24 00:09:29,48.93,-125.55,46.99,87,90,29.97,overcast clouds,0.0,0.0
322,Yarim,YE,2020-02-24 00:08:06,14.3,44.38,53.73,44,47,4.45,scattered clouds,0.0,0.0
323,Graaff-Reinet,ZA,2020-02-24 00:11:46,-32.25,24.53,52.0,86,0,1.01,clear sky,0.0,0.0
324,Afua,BR,2020-02-24 00:11:46,-0.16,-50.39,78.13,90,77,7.0,broken clouds,0.0,0.0
325,Madimba,TZ,2020-02-24 00:11:47,-10.4,40.33,82.81,80,46,13.42,light rain,0.13,0.0
326,Lyuban,BY,2020-02-24 00:11:47,52.8,28.0,33.6,96,100,2.91,light snow,0.0,0.13
327,Mae Sai,TH,2020-02-24 00:11:47,20.43,99.88,62.01,93,21,1.3,few clouds,0.0,0.0
328,Eyl,SO,2020-02-24 00:11:47,7.98,49.82,77.97,77,100,18.75,overcast clouds,0.0,0.0
329,Touros,BR,2020-02-24 00:11:47,-5.2,-35.46,80.6,88,20,9.17,few clouds,0.0,0.0
330,Atar,MR,2020-02-24 00:07:09,20.52,-13.05,84.79,13,100,14.76,overcast clouds,0.0,0.0
331,Saint Anthony,US,2020-02-24 00:10:06,45.02,-93.22,42.8,52,1,10.29,clear sky,0.0,0.0
332,Roald,NO,2020-02-24 00:11:48,62.58,6.13,37.4,64,75,12.75,shower rain,0.0,0.0
333,Poykovskiy,RU,2020-02-24 00:11:48,61.23,73.33,17.6,85,100,8.95,light snow,0.0,0.13
334,Pangnirtung,CA,2020-02-24 00:11:48,66.15,-65.71,-33.66,98,100,0.65,overcast clouds,0.0,0.0
335,Bambanglipuro,ID,2020-02-24 00:11:48,-7.95,110.28,78.31,83,28,4.27,scattered clouds,0.0,0.0
336,Mitsamiouli,KM,2020-02-24 00:11:49,-11.38,43.28,84.0,78,100,12.28,light rain,0.12,0.0
337,Biskamzha,RU,2020-02-24 00:11:49,53.45,89.53,3.49,93,45,2.55,scattered clouds,0.0,0.0
338,Katsuura,JP,2020-02-24 00:11:49,35.13,140.3,51.01,45,40,9.17,scattered clouds,0.0,0.0
339,Mikhaylovka,RU,2020-02-24 00:11:49,50.06,43.24,36.0,93,100,1.01,light rain,0.44,0.0
340,Adwa,ET,2020-02-24 00:11:50,14.16,38.9,57.87,81,13,5.44,few clouds,0.0,0.0
341,Alikalia,SL,2020-02-24 00:11:50,9.17,-11.4,71.65,78,73,2.95,broken clouds,0.0,0.0
342,Ostrovnoy,RU,2020-02-24 00:11:50,68.05,39.51,29.7,93,100,14.52,light snow,0.0,0.87
343,Menongue,AO,2020-02-24 00:11:50,-14.66,17.69,62.65,97,100,1.39,light rain,1.13,0.0
344,Muisne,EC,2020-02-24 00:11:50,0.6,-80.03,82.4,83,75,9.17,broken clouds,0.0,0.0
345,Turukhansk,RU,2020-02-24 00:11:51,65.82,87.98,14.11,94,100,12.71,light snow,0.0,0.63
346,Teahupoo,PF,2020-02-24 00:11:51,-17.83,-149.27,87.8,62,20,17.22,few clouds,0.0,0.0
347,Kommunar,RU,2020-02-24 00:11:51,59.62,30.39,35.6,93,90,8.95,overcast clouds,0.0,0.0
348,Dongfeng,CN,2020-02-24 00:11:51,42.64,125.51,23.0,89,17,2.75,few clouds,0.0,0.0
349,Kyzyl-Mazhalyk,RU,2020-02-24 00:11:51,51.13,90.6,14.74,96,100,1.34,light snow,0.0,0.5
350,Tambo,PE,2020-02-24 00:11:51,-14.8,-73.92,48.96,95,99,5.1,light rain,1.38,0.0
351,Kudahuvadhoo,MV,2020-02-24 00:11:52,2.67,72.89,82.65,79,100,16.91,overcast clouds,0.0,0.0
352,Montecristi,EC,2020-02-24 00:11:52,-1.05,-80.67,82.4,83,75,5.82,broken clouds,0.0,0.0
353,Akropong,GH,2020-02-24 00:11:52,5.97,-0.09,82.38,78,1,11.05,clear sky,0.0,0.0
354,Ilula,TZ,2020-02-24 00:11:52,-7.68,36.04,63.27,97,100,2.15,overcast clouds,0.0,0.0
355,Norfolk,US,2020-02-24 00:07:11,42.17,-71.25,44.6,41,1,5.82,clear sky,0.0,0.0
356,Sulangan,PH,2020-02-24 00:11:53,11.14,123.72,79.38,80,19,16.06,light rain,0.44,0.0
357,Davila,PH,2020-02-24 00:11:53,18.47,120.58,69.8,94,75,3.36,broken clouds,0.0,0.0
358,Iralaya,HN,2020-02-24 00:11:53,15.0,-83.23,80.6,78,40,17.22,scattered clouds,0.0,0.0
359,Polyarnyy,RU,2020-02-24 00:11:53,69.2,33.45,23.0,92,75,6.71,broken clouds,0.0,0.0
360,Nanuque,BR,2020-02-24 00:08:13,-17.84,-40.35,72.52,83,100,13.15,overcast clouds,0.0,0.0
361,Kavieng,PG,2020-02-24 00:11:54,-2.57,150.8,84.42,68,13,7.05,few clouds,0.0,0.0
362,Toppenish,US,2020-02-24 00:11:54,46.38,-120.31,51.01,43,1,25.28,clear sky,0.0,0.0
363,Burla,IN,2020-02-24 00:11:54,21.5,83.87,64.63,64,16,5.77,few clouds,0.0,0.0
364,Lima,PE,2020-02-24 00:07:16,-12.04,-77.03,78.8,69,75,12.75,broken clouds,0.0,0.0
365,Ko Samui,TH,2020-02-24 00:11:55,9.54,99.94,80.6,78,20,9.17,few clouds,0.0,0.0
366,Nhulunbuy,AU,2020-02-24 00:11:55,-12.23,136.77,86.0,70,75,19.46,shower rain,0.0,0.0
367,Menomonie,US,2020-02-24 00:11:55,44.88,-91.92,41.0,55,1,10.29,clear sky,0.0,0.0
368,Horsham,GB,2020-02-24 00:11:20,51.06,-0.33,46.99,75,100,3.36,overcast clouds,0.0,0.0
369,Sabzevar,IR,2020-02-24 00:11:55,36.21,57.68,49.71,50,0,5.57,clear sky,0.0,0.0
370,Gushi,CN,2020-02-24 00:11:55,34.64,109.58,47.84,67,15,5.23,few clouds,0.0,0.0
371,Ruteng,ID,2020-02-24 00:11:56,-8.61,120.47,74.79,81,76,2.42,light rain,0.13,0.0
372,Bone,DE,2020-02-24 00:11:56,51.97,12.14,42.01,65,20,26.4,few clouds,0.0,0.0
373,Egvekinot,RU,2020-02-24 00:11:56,66.32,-179.17,-23.01,88,0,2.68,clear sky,0.0,0.0
374,Senhor Do Bonfim,BR,2020-02-24 00:11:56,-10.46,-40.19,79.81,65,47,0.78,scattered clouds,0.0,0.0
375,Nishihara,JP,2020-02-24 00:11:56,26.18,127.76,64.4,77,75,4.7,broken clouds,0.0,0.0
376,Zhangye,CN,2020-02-24 00:11:57,38.93,100.45,28.09,46,50,1.77,scattered clouds,0.0,0.0
377,Kamenka,RU,2020-02-24 00:11:57,51.32,42.77,34.0,97,100,5.01,snow,0.0,1.81
378,Kayes,ML,2020-02-24 00:11:57,14.0,-11.0,90.25,9,97,11.52,overcast clouds,0.0,0.0
379,San Cristobal,VE,2020-02-24 00:11:57,7.77,-72.22,80.6,65,40,2.24,scattered clouds,0.0,0.0
380,Shimoda,JP,2020-02-24 00:11:57,34.67,138.95,51.8,62,75,2.24,broken clouds,0.0,0.0
381,Bilma,NE,2020-02-24 00:11:58,18.69,12.92,60.96,31,67,18.12,broken clouds,0.0,0.0
382,Provideniya,RU,2020-02-24 00:11:58,64.38,-173.3,-1.77,69,0,0.92,clear sky,0.0,0.0
383,Skovorodino,RU,2020-02-24 00:11:58,53.98,123.92,0.12,92,23,3.13,few clouds,0.0,0.0
384,Lata,PT,2020-02-24 00:11:58,40.16,-8.33,57.0,87,0,2.35,clear sky,0.0,0.0
385,Kaeo,NZ,2020-02-24 00:11:58,-35.1,173.78,79.0,46,0,8.99,clear sky,0.0,0.0
386,Belmonte,BR,2020-02-24 00:11:58,-15.86,-38.88,78.8,78,75,6.93,broken clouds,0.0,0.0
387,Hovd,MN,2020-02-24 00:11:59,48.01,91.64,14.5,78,100,0.65,overcast clouds,0.0,0.0
388,Mayumba,GA,2020-02-24 00:11:59,-3.43,10.66,82.13,78,93,5.3,overcast clouds,0.0,0.0
389,Quelimane,MZ,2020-02-24 00:11:59,-17.88,36.89,82.4,88,99,2.24,light rain,0.44,0.0
390,Panzhihua,CN,2020-02-24 00:11:59,26.59,101.71,46.33,86,15,1.54,few clouds,0.0,0.0
391,Port-Cartier,CA,2020-02-24 00:11:59,50.03,-66.87,28.4,92,75,4.7,broken clouds,0.0,0.0
392,Pak Chong,TH,2020-02-24 00:12:00,14.71,101.42,61.54,66,76,3.94,broken clouds,0.0,0.0
393,Kutum,SD,2020-02-24 00:12:00,14.2,24.67,55.24,29,0,6.42,clear sky,0.0,0.0
394,Victoria Point,AU,2020-02-24 00:12:00,-27.58,153.3,77.0,83,75,10.29,light rain,0.0,0.0
395,Benguela,AO,2020-02-24 00:12:00,-12.58,13.41,79.0,78,98,2.37,overcast clouds,0.0,0.0
396,Chadiza,ZM,2020-02-24 00:12:00,-14.07,32.44,68.34,96,100,2.44,moderate rain,5.0,0.0
397,Evensk,RU,2020-02-24 00:12:01,61.95,159.23,0.28,92,100,4.43,light snow,0.0,0.19
398,Vanimo,PG,2020-02-24 00:12:01,-2.67,141.3,82.17,77,74,7.61,light rain,0.56,0.0
399,Shache,CN,2020-02-24 00:12:01,38.42,77.24,38.1,44,98,4.27,overcast clouds,0.0,0.0
400,Baculin,PH,2020-02-24 00:12:01,7.45,126.58,75.02,91,94,4.47,light rain,2.5,0.0
401,Antofagasta,CL,2020-02-24 00:11:35,-23.65,-70.4,69.8,73,20,9.17,few clouds,0.0,0.0
402,Champerico,GT,2020-02-24 00:12:02,14.3,-91.92,89.6,52,20,11.41,few clouds,0.0,0.0
403,Omboue,GA,2020-02-24 00:12:02,-1.57,9.26,76.41,94,98,2.3,light rain,1.0,0.0
404,Havelock,US,2020-02-24 00:12:02,34.88,-76.9,53.6,34,1,4.7,clear sky,0.0,0.0
405,Weinan,CN,2020-02-24 00:12:02,34.5,109.51,51.01,69,15,4.47,few clouds,0.0,0.0
406,Inirida,CO,2020-02-24 00:12:02,3.87,-67.92,76.62,95,100,2.08,light rain,1.06,0.0
407,Cayenne,GF,2020-02-24 00:12:03,4.93,-52.33,80.6,83,75,10.29,light rain,0.0,0.0
408,Kapit,MY,2020-02-24 00:12:03,2.02,112.93,73.2,97,87,0.25,overcast clouds,0.0,0.0
409,Keti Bandar,PK,2020-02-24 00:12:03,24.14,67.45,71.08,56,0,11.5,clear sky,0.0,0.0
410,Satka,RU,2020-02-24 00:12:03,55.04,59.04,17.64,86,55,4.74,broken clouds,0.0,0.0
411,Haines Junction,CA,2020-02-24 00:12:03,60.75,-137.51,9.27,92,100,5.14,light snow,0.0,0.25
412,Kargil,IN,2020-02-24 00:12:04,34.57,76.1,-12.59,88,36,2.64,scattered clouds,0.0,0.0
413,Kosh-Agach,RU,2020-02-24 00:12:04,50.0,88.67,6.75,86,100,1.57,light snow,0.0,0.25
414,Macomer,IT,2020-02-24 00:12:04,40.26,8.77,53.6,87,1,9.17,clear sky,0.0,0.0
415,Beyneu,KZ,2020-02-24 00:12:04,45.32,55.2,41.29,87,100,16.64,light rain,1.13,0.0
416,Anadyr,RU,2020-02-24 00:12:04,64.75,177.48,-16.01,75,0,2.24,clear sky,0.0,0.0
417,Qui Nhon,VN,2020-02-24 00:07:46,13.77,109.23,62.42,85,47,3.18,scattered clouds,0.0,0.0
418,Grand-Santi,GF,2020-02-24 00:12:05,4.25,-54.38,74.97,97,100,3.33,light rain,1.19,0.0
419,Noumea,NC,2020-02-24 00:12:05,-22.28,166.46,89.6,43,78,10.29,broken clouds,0.0,0.0
420,Salym,RU,2020-02-24 00:12:05,60.06,71.48,25.5,91,100,9.6,overcast clouds,0.0,0.0
421,Coihaique,CL,2020-02-24 00:12:05,-45.58,-72.07,59.0,47,75,8.05,broken clouds,0.0,0.0
422,La Ronge,CA,2020-02-24 00:12:06,55.1,-105.28,32.0,90,75,8.05,broken clouds,0.0,0.0
423,Ayagoz,KZ,2020-02-24 00:12:06,47.97,80.44,9.12,93,98,6.53,overcast clouds,0.0,0.0
424,Chekalin,RU,2020-02-24 00:12:06,54.1,36.24,33.8,86,33,8.95,scattered clouds,0.0,0.0
425,Grande-Synthe,FR,2020-02-24 00:12:06,51.02,2.3,46.0,65,100,5.82,overcast clouds,0.0,0.0
426,Tolaga Bay,NZ,2020-02-24 00:12:06,-38.37,178.3,63.88,81,97,24.4,light rain,0.75,0.0
427,Divnomorskoye,RU,2020-02-24 00:12:06,44.5,38.14,45.03,81,100,22.24,light rain,0.12,0.0
428,Kropotkin,RU,2020-02-24 00:12:07,45.44,40.58,41.56,77,100,18.37,overcast clouds,0.0,0.0
429,Gaoual,GN,2020-02-24 00:12:07,11.75,-13.2,77.63,30,84,1.81,broken clouds,0.0,0.0
430,Stokmarknes,NO,2020-02-24 00:12:07,68.56,14.91,33.01,90,100,11.01,snow,0.0,1.81
431,Burns Lake,CA,2020-02-24 00:12:08,54.23,-125.75,28.08,78,100,3.04,overcast clouds,0.0,0.0
432,Kimbe,PG,2020-02-24 00:12:08,-5.55,150.14,84.31,73,83,3.98,light rain,2.06,0.0
433,Parker,US,2020-02-24 00:12:08,32.77,-97.8,57.2,87,90,8.05,overcast clouds,0.0,0.0
434,Gandajika,CD,2020-02-24 00:09:04,-6.75,23.95,68.22,97,100,6.06,light rain,0.31,0.0
435,Viedma,AR,2020-02-24 00:12:05,-40.81,-63.0,81.37,30,1,11.68,clear sky,0.0,0.0
436,Nizhnevartovsk,RU,2020-02-24 00:12:10,60.93,76.55,15.8,72,100,8.95,light snow,0.0,0.13
437,Pafos,CY,2020-02-24 00:12:10,34.77,32.42,51.8,76,40,6.93,scattered clouds,0.0,0.0
438,Dalmatovo,RU,2020-02-24 00:12:10,56.26,62.94,12.69,93,3,11.81,clear sky,0.0,0.0
439,Point Fortin,TT,2020-02-24 00:12:11,10.18,-61.68,78.8,83,20,8.05,shower rain,0.0,0.0
440,Araouane,ML,2020-02-24 00:12:11,18.9,-3.53,79.38,10,1,16.06,clear sky,0.0,0.0
441,Hanmer Springs,NZ,2020-02-24 00:08:45,-42.52,172.82,71.17,30,1,4.88,clear sky,0.0,0.0
442,Aquiraz,BR,2020-02-24 00:12:11,-3.9,-38.39,82.4,83,97,3.36,overcast clouds,0.0,0.0
443,Turbat,PK,2020-02-24 00:12:11,26.0,63.04,65.59,68,0,2.8,clear sky,0.0,0.0
444,Clyde River,CA,2020-02-24 00:12:11,70.47,-68.59,-22.0,74,1,14.99,clear sky,0.0,0.0
445,Clive,US,2020-02-24 00:12:12,41.6,-93.72,55.4,53,1,9.17,clear sky,0.0,0.0
446,Yangmei,CN,2020-02-24 00:12:12,24.1,112.56,61.48,77,65,3.09,broken clouds,0.0,0.0
447,Kidal,ML,2020-02-24 00:12:12,18.44,1.41,73.99,15,40,17.58,scattered clouds,0.0,0.0
448,Lodwar,KE,2020-02-24 00:12:12,3.12,35.6,84.29,37,95,3.83,overcast clouds,0.0,0.0
449,Emerald,AU,2020-02-24 00:12:12,-23.53,148.17,78.8,83,90,14.99,overcast clouds,0.0,0.0
450,Northam,GB,2020-02-24 00:12:13,51.03,-4.22,48.99,100,75,9.17,light intensity drizzle,0.0,0.0
451,Elko,US,2020-02-24 00:12:13,41.0,-115.5,53.6,27,40,14.99,scattered clouds,0.0,0.0
452,Mackay,AU,2020-02-24 00:12:13,-21.15,149.2,82.99,94,90,12.75,overcast clouds,0.0,0.0
453,Nkhotakota,MW,2020-02-24 00:12:13,-12.93,34.3,79.97,76,91,5.7,overcast clouds,0.0,0.0
454,Puerto Madero,MX,2020-02-24 00:12:14,14.72,-92.42,87.8,55,5,10.29,clear sky,0.0,0.0
455,Nichinan,JP,2020-02-24 00:09:04,31.6,131.37,42.8,70,20,11.41,few clouds,0.0,0.0
456,Alexandria,EG,2020-02-24 00:07:33,31.22,29.96,50.0,87,40,2.24,scattered clouds,0.0,0.0
457,Beloha,MG,2020-02-24 00:12:14,-25.17,45.05,75.29,90,100,4.85,overcast clouds,0.0,0.0
458,Mayna,RU,2020-02-24 00:12:14,54.11,47.62,30.24,96,100,13.53,light snow,0.0,0.94
459,Mogadishu,SO,2020-02-24 00:10:17,2.04,45.34,79.93,81,20,25.08,few clouds,0.0,0.0
460,Tecolutla,MX,2020-02-24 00:12:15,20.48,-97.02,75.2,78,40,17.2,scattered clouds,0.0,0.0
461,Niamey,NE,2020-02-24 00:12:15,13.51,2.11,80.6,11,2,5.82,clear sky,0.0,0.0
462,North Bend,US,2020-02-24 00:12:15,43.41,-124.22,50.0,70,75,10.29,broken clouds,0.0,0.0
463,Kieta,PG,2020-02-24 00:12:15,-6.22,155.63,84.97,66,21,5.12,light rain,0.44,0.0
464,Eha Amufu,NG,2020-02-24 00:12:15,6.66,7.76,80.6,44,37,5.82,scattered clouds,0.0,0.0
465,Asau,RO,2020-02-24 00:11:59,46.43,26.4,53.6,50,40,17.22,scattered clouds,0.0,0.0
466,Iaciara,BR,2020-02-24 00:12:16,-14.1,-46.63,73.71,89,97,3.74,light rain,2.81,0.0
467,Auki,SB,2020-02-24 00:12:16,-8.77,160.7,83.64,73,0,7.09,clear sky,0.0,0.0
468,Nianzishan,CN,2020-02-24 00:12:16,47.52,122.88,13.89,77,0,11.77,clear sky,0.0,0.0
469,Poum,NC,2020-02-24 00:12:16,-20.23,164.02,80.44,79,34,21.36,scattered clouds,0.0,0.0
470,Nemuro,JP,2020-02-24 00:12:16,43.32,145.57,30.2,58,40,8.05,shower rain,0.0,0.0
471,Alice Springs,AU,2020-02-24 00:12:17,-23.7,133.88,82.4,39,69,16.11,broken clouds,0.0,0.0
472,Tromso,NO,2020-02-24 00:12:17,69.65,18.96,32.0,98,90,40.26,overcast clouds,0.0,0.0
473,Vernon,CA,2020-02-24 00:10:14,50.26,-119.27,39.2,91,1,4.7,clear sky,0.0,0.0
474,Delano,US,2020-02-24 00:11:28,35.77,-119.25,69.01,42,1,3.36,clear sky,0.0,0.0
475,Yatou,CN,2020-02-24 00:12:17,37.15,122.38,43.86,83,27,10.0,scattered clouds,0.0,0.0
476,Burnie,AU,2020-02-24 00:12:18,-41.07,145.92,68.0,67,100,4.0,overcast clouds,0.0,0.0
477,Nanzhou,CN,2020-02-24 00:12:18,29.36,112.4,60.31,85,96,14.2,overcast clouds,0.0,0.0
478,Yulara,AU,2020-02-24 00:12:18,-25.24,130.99,82.4,23,0,12.75,clear sky,0.0,0.0
479,Trinidad,BO,2020-02-24 00:12:18,-14.83,-64.9,77.0,78,75,0.81,broken clouds,0.0,0.0
480,Seevetal,DE,2020-02-24 00:12:18,53.4,9.97,42.01,86,72,18.34,broken clouds,0.0,0.0
481,Lira,UG,2020-02-24 00:12:19,2.23,32.91,76.1,47,96,5.01,overcast clouds,0.0,0.0
482,Oranjemund,NA,2020-02-24 00:12:19,-28.55,16.43,70.86,48,0,2.42,clear sky,0.0,0.0
483,Arlit,NE,2020-02-24 00:12:19,18.74,7.39,64.71,19,13,8.16,few clouds,0.0,0.0
484,Datong,CN,2020-02-24 00:12:19,40.09,113.29,33.8,46,98,2.37,overcast clouds,0.0,0.0
485,Hambantota,LK,2020-02-24 00:10:45,6.12,81.12,79.12,82,99,21.83,overcast clouds,0.0,0.0
486,Tanete,ID,2020-02-24 00:12:20,-3.94,119.78,80.26,84,93,1.23,overcast clouds,0.0,0.0
487,Kaniama,CD,2020-02-24 00:12:20,-7.57,24.18,67.21,97,100,3.4,light rain,0.25,0.0
488,Okhotsk,RU,2020-02-24 00:12:20,59.38,143.3,-9.02,77,26,4.59,scattered clouds,0.0,0.0
489,Palmer,US,2020-02-24 00:12:20,42.16,-72.33,44.01,38,1,5.82,clear sky,0.0,0.0
490,Emba,KZ,2020-02-24 00:12:20,48.83,58.14,12.16,95,60,9.17,broken clouds,0.0,0.0
491,Arman,RU,2020-02-24 00:12:20,59.7,150.17,-0.09,86,61,5.53,broken clouds,0.0,0.0
492,Muros,ES,2020-02-24 00:12:21,42.78,-9.06,55.99,100,0,1.28,fog,0.0,0.0
493,Nizhniy Tsasuchey,RU,2020-02-24 00:12:05,50.52,115.13,10.24,77,0,6.13,clear sky,0.0,0.0
494,Abha,SA,2020-02-24 00:12:21,18.22,42.51,60.8,54,65,4.7,broken clouds,0.0,0.0
495,Tatarsk,RU,2020-02-24 00:12:21,55.22,75.98,12.29,96,98,5.17,light snow,0.0,0.13
496,Krasnoselkup,RU,2020-02-24 00:12:21,65.7,82.47,25.2,88,100,21.41,light snow,0.0,0.13
497,San Joaquin,VE,2020-02-24 00:12:22,10.26,-67.79,73.65,87,76,6.29,broken clouds,0.0,0.0
498,Presidencia Roque Saenz Pena,AR,2020-02-24 00:12:22,-26.79,-60.44,65.98,55,12,0.6,few clouds,0.0,0.0
499,Tynda,RU,2020-02-24 00:12:22,55.17,124.72,-2.76,94,38,2.73,scattered clouds,0.0,0.0
500,Salinopolis,BR,2020-02-24 00:10:38,-0.61,-47.36,81.79,85,10,12.82,clear sky,0.0,0.0
501,Isangel,VU,2020-02-24 00:12:22,-19.55,169.27,84.2,66,75,9.17,broken clouds,0.0,0.0
502,Warrnambool,AU,2020-02-24 00:11:54,-38.38,142.48,66.99,88,96,9.24,overcast clouds,0.0,0.0
503,Verkhnevilyuysk,RU,2020-02-24 00:12:23,63.45,120.32,-4.9,95,92,5.41,overcast clouds,0.0,0.0
504,Deputatskiy,RU,2020-02-24 00:12:23,69.3,139.9,-20.76,94,0,3.18,clear sky,0.0,0.0
505,Puerto Ayacucho,VE,2020-02-24 00:12:23,5.66,-67.62,95.0,39,75,3.36,broken clouds,0.0,0.0
506,Mareeba,AU,2020-02-24 00:12:23,-17.0,145.43,80.6,94,90,11.41,light intensity shower rain,0.0,0.0
507,Shebalino,RU,2020-02-24 00:12:24,51.29,85.68,11.07,96,100,1.45,light snow,0.0,0.25
508,Waingapu,ID,2020-02-24 00:12:24,-9.66,120.26,83.57,77,74,16.73,broken clouds,0.0,0.0
509,Rawson,AR,2020-02-24 00:12:24,-43.3,-65.1,61.32,84,0,14.23,clear sky,0.0,0.0
510,Verkhnyaya Inta,RU,2020-02-24 00:12:24,65.98,60.31,22.87,79,100,11.59,overcast clouds,0.0,0.0
511,Liwale,TZ,2020-02-24 00:12:24,-9.77,37.93,72.55,97,86,7.43,overcast clouds,0.0,0.0
512,Oschatz,DE,2020-02-24 00:12:25,51.3,13.12,42.01,76,75,20.8,broken clouds,0.0,0.0
513,Zhigansk,RU,2020-02-24 00:12:25,66.77,123.37,-10.12,94,100,13.76,overcast clouds,0.0,0.0
514,Yar-Sale,RU,2020-02-24 00:12:25,66.83,70.83,29.35,84,100,24.7,overcast clouds,0.0,0.0
515,Olinda,BR,2020-02-24 00:12:25,-8.01,-34.86,84.2,74,40,9.17,scattered clouds,0.0,0.0
516,Esna,EG,2020-02-24 00:12:25,25.29,32.55,55.4,58,100,9.33,overcast clouds,0.0,0.0
517,Hobyo,SO,2020-02-24 00:12:26,5.35,48.53,76.05,76,94,14.54,overcast clouds,0.0,0.0
518,Nouadhibou,MR,2020-02-24 00:12:26,20.93,-17.03,69.8,68,100,12.75,light rain,0.0,0.0
519,Smoky Lake,CA,2020-02-24 00:12:26,54.12,-112.47,23.0,55,0,0.94,clear sky,0.0,0.0
520,Yarmouth,US,2020-02-24 00:12:26,41.71,-70.23,41.0,60,1,13.87,clear sky,0.0,0.0
521,Mnogovershinnyy,RU,2020-02-24 00:12:27,53.94,139.92,5.76,89,81,1.52,broken clouds,0.0,0.0
522,Hornepayne,CA,2020-02-24 00:12:27,49.21,-84.77,29.3,96,100,8.23,light snow,0.0,0.38
523,Daru,PG,2020-02-24 00:10:04,-9.08,143.21,86.27,67,93,8.61,overcast clouds,0.0,0.0
524,Chitapur,IN,2020-02-24 00:12:27,17.12,77.08,68.54,74,0,13.42,clear sky,0.0,0.0
525,Boa Vista,BR,2020-02-24 00:09:36,2.82,-60.67,91.4,46,62,5.82,light rain,0.25,0.0
526,Velyka Lepetykha,UA,2020-02-24 00:12:27,47.18,33.94,41.36,88,100,16.67,light rain,0.75,0.0
527,Amuntai,ID,2020-02-24 00:08:03,-2.42,115.25,77.65,90,77,1.72,light rain,0.13,0.0
528,Victor Harbor,AU,2020-02-24 00:12:28,-35.57,138.62,82.99,44,32,11.41,scattered clouds,0.0,0.0
529,Maumere,ID,2020-02-24 00:12:28,-8.62,122.21,80.38,79,31,8.99,scattered clouds,0.0,0.0
530,Geraldton,AU,2020-02-24 00:12:28,-28.77,114.6,73.4,94,40,3.36,scattered clouds,0.0,0.0
531,Bairiki,KI,2020-02-24 00:12:29,1.33,172.98,87.8,74,40,10.29,scattered clouds,0.0,0.0
532,Bubaque,GW,2020-02-24 00:10:29,11.28,-15.83,78.8,72,19,20.18,few clouds,0.0,0.0
533,Ostersund,SE,2020-02-24 00:12:29,63.18,14.64,28.4,74,0,14.99,clear sky,0.0,0.0
534,Goryachiy Klyuch,RU,2020-02-24 00:12:29,44.63,39.13,43.0,75,75,6.71,broken clouds,0.0,0.0
535,El Corpus,HN,2020-02-24 00:12:29,14.7,-88.92,63.28,83,21,5.57,few clouds,0.0,0.0
536,Calawag,PH,2020-02-24 00:12:30,10.67,119.57,79.05,75,51,9.98,broken clouds,0.0,0.0
537,Teeli,RU,2020-02-24 00:12:30,51.03,90.23,12.13,95,100,1.21,light snow,0.0,0.5
538,Kushmurun,KZ,2020-02-24 00:12:30,52.45,64.63,7.63,97,75,6.91,broken clouds,0.0,0.0
539,Ranfurly,NZ,2020-02-24 00:12:30,-45.13,170.1,62.01,71,14,1.99,few clouds,0.0,0.0
540,Bonthe,SL,2020-02-24 00:12:30,7.53,-12.51,79.61,83,30,7.11,scattered clouds,0.0,0.0
541,Owando,CG,2020-02-24 00:12:31,-0.48,15.9,75.31,92,100,3.42,overcast clouds,0.0,0.0
542,Mehamn,NO,2020-02-24 00:10:57,71.04,27.85,30.2,86,90,8.05,overcast clouds,0.0,0.0
543,Los Llanos De Aridane,ES,2020-02-24 00:12:31,28.66,-17.92,73.0,64,90,10.29,haze,0.0,0.0
544,Aksha,RU,2020-02-24 00:12:31,50.28,113.29,1.85,85,0,4.05,clear sky,0.0,0.0
545,Varhaug,NO,2020-02-24 00:12:31,58.61,5.65,39.99,68,90,11.41,overcast clouds,0.0,0.0
546,Waddan,LY,2020-02-24 00:12:32,29.16,16.14,48.94,72,0,4.61,clear sky,0.0,0.0
547,Pathein,MM,2020-02-24 00:12:32,16.78,94.73,74.95,60,45,7.94,scattered clouds,0.0,0.0
548,Mutis,CO,2020-02-24 00:12:32,6.23,-77.4,80.29,81,72,10.76,broken clouds,0.0,0.0
549,Perth,AU,2020-02-24 00:12:32,-31.93,115.83,75.99,64,75,17.22,broken clouds,0.0,0.0
550,Alihe,CN,2020-02-24 00:12:32,50.57,123.72,6.21,87,28,4.12,scattered clouds,0.0,0.0
551,Alofi,NU,2020-02-24 00:09:43,-19.06,-169.92,84.2,79,100,9.17,light rain,2.0,0.0
552,Narasannapeta,IN,2020-02-24 00:12:33,18.42,84.05,67.12,81,0,1.57,clear sky,0.0,0.0
553,Cosala,MX,2020-02-24 00:12:33,24.41,-106.69,77.0,74,4,4.0,clear sky,0.0,0.0
554,Fukue,JP,2020-02-24 00:12:33,32.69,128.84,50.0,100,20,3.36,few clouds,0.0,0.0
555,San Carlos De Bariloche,AR,2020-02-24 00:12:33,-41.15,-71.31,60.8,38,75,26.4,broken clouds,0.0,0.0
556,Winneba,GH,2020-02-24 00:12:34,5.35,-0.62,80.78,88,13,6.91,few clouds,0.0,0.0
557,Nalut,LY,2020-02-24 00:10:53,30.33,10.85,48.87,57,0,7.72,clear sky,0.0,0.0
558,Katobu,ID,2020-02-24 00:12:34,-4.94,122.53,79.86,86,96,1.9,light rain,1.19,0.0
559,Qurayyat,SA,2020-02-24 00:12:34,31.33,37.34,51.8,45,90,13.87,overcast clouds,0.0,0.0
560,Shingu,JP,2020-02-24 00:12:34,33.73,135.98,46.4,52,20,4.7,few clouds,0.0,0.0
561,Paramonga,PE,2020-02-24 00:12:34,-10.67,-77.83,72.59,87,45,8.23,scattered clouds,0.0,0.0
562,Beni,CD,2020-02-24 00:12:35,0.5,29.47,67.59,91,99,3.09,light rain,1.88,0.0
563,Vestmannaeyjar,IS,2020-02-24 00:12:35,63.44,-20.27,39.76,74,100,30.27,snow,0.0,1.56
564,Totma,RU,2020-02-24 00:12:35,59.97,42.76,31.26,91,100,9.31,light snow,0.0,0.13
565,Batsfjord,NO,2020-02-24 00:12:35,70.63,29.72,26.6,79,75,4.7,broken clouds,0.0,0.0
566,Volosovo,RU,2020-02-24 00:12:35,59.43,29.48,35.6,96,90,8.95,overcast clouds,0.0,0.0
