City_ID,City,Country,Date,Lat,Lng,Max Temp,Humidity,Cloudiness,Wind Speed,Current Description,Rain inches (last 3 hrs),Snow inches (last 3 hrs)
0,Mahon,ES,2020-02-22 21:50:07,39.89,4.27,48.2,93,0,4.7,clear sky,0.0,0.0
1,Rikitea,PF,2020-02-22 21:42:05,-23.12,-134.97,78.94,70,1,7.52,clear sky,0.0,0.0
2,Ushuaia,AR,2020-02-22 21:45:54,-54.8,-68.3,69.8,52,75,9.17,broken clouds,0.0,0.0
3,Punta Arenas,CL,2020-02-22 21:50:07,-53.15,-70.92,69.8,46,100,25.28,overcast clouds,0.0,0.0
4,Roma,US,2020-02-22 21:48:18,43.21,-75.46,42.01,51,90,10.29,overcast clouds,0.0,0.0
5,Lata,PT,2020-02-22 21:48:08,40.16,-8.33,59.0,93,0,3.36,clear sky,0.0,0.0
6,Avarua,CK,2020-02-22 21:46:49,-21.21,-159.78,80.6,78,69,8.05,light rain,0.0,0.0
7,Hermanus,ZA,2020-02-22 21:47:13,-34.42,19.23,66.99,88,89,4.0,overcast clouds,0.0,0.0
8,Albany,US,2020-02-22 21:50:08,42.6,-73.97,42.8,55,1,13.87,clear sky,0.0,0.0
9,Busselton,AU,2020-02-22 21:50:08,-33.65,115.33,66.99,69,5,10.8,clear sky,0.0,0.0
10,Puerto Ayora,EC,2020-02-22 21:50:09,-0.74,-90.35,82.4,78,40,9.17,shower rain,0.0,0.0
11,Portland,US,2020-02-22 21:46:08,45.52,-122.68,57.0,43,75,2.26,broken clouds,0.0,0.0
12,Isangel,VU,2020-02-22 21:45:57,-19.55,169.27,82.4,78,20,16.35,few clouds,0.0,0.0
13,Yellowknife,CA,2020-02-22 21:50:09,62.46,-114.35,5.0,60,20,6.93,few clouds,0.0,0.0
14,Castro,BR,2020-02-22 21:48:19,-24.79,-50.01,70.52,75,34,5.53,light rain,0.38,0.0
15,Qaanaaq,GL,2020-02-22 21:50:10,77.48,-69.36,-14.08,64,99,4.52,overcast clouds,0.0,0.0
16,Vardo,NO,2020-02-22 21:45:06,70.37,31.11,33.4,82,5,25.99,clear sky,0.0,0.0
17,Tromso,NO,2020-02-22 21:50:10,69.65,18.96,35.6,93,75,28.86,light intensity shower rain,0.0,0.0
18,Ituango,CO,2020-02-22 21:50:10,7.17,-75.76,67.26,87,100,1.25,moderate rain,5.0,0.0
19,Mataura,NZ,2020-02-22 21:50:11,-46.19,168.86,60.01,77,70,15.01,broken clouds,0.0,0.0
20,Hobart,AU,2020-02-22 21:46:20,-42.88,147.33,55.99,76,20,6.93,few clouds,0.0,0.0
21,Beira,MZ,2020-02-22 21:50:11,-19.84,34.84,80.6,88,4,5.82,clear sky,0.0,0.0
22,Bluff,NZ,2020-02-22 21:50:11,-46.6,168.33,60.01,77,68,15.01,light rain,0.19,0.0
23,Fairbanks,US,2020-02-22 21:43:39,64.84,-147.72,12.0,84,90,10.29,overcast clouds,0.0,0.0
24,Leh,IN,2020-02-22 21:50:11,34.17,77.58,-5.22,54,0,3.06,clear sky,0.0,0.0
25,Mezica,SI,2020-02-22 21:50:12,46.52,14.85,41.0,80,100,1.12,overcast clouds,0.0,0.0
26,Jamestown,US,2020-02-22 21:48:23,42.1,-79.24,42.8,44,1,18.34,clear sky,0.0,0.0
27,Olafsvik,IS,2020-02-22 21:45:21,64.89,-23.71,28.99,70,100,5.37,overcast clouds,0.0,0.0
28,Brae,GB,2020-02-22 21:47:53,60.4,-1.35,41.0,86,68,17.22,light rain,0.94,0.0
29,Dikson,RU,2020-02-22 21:43:54,73.51,80.55,16.52,93,100,25.37,light snow,0.0,0.81
30,Sao Jose Da Coroa Grande,BR,2020-02-22 21:50:13,-8.9,-35.15,82.13,80,70,14.45,broken clouds,0.0,0.0
31,Dongsheng,CN,2020-02-22 21:49:26,39.82,109.98,28.36,54,0,16.17,clear sky,0.0,0.0
32,Mar Del Plata,AR,2020-02-22 21:49:05,-38.0,-57.56,62.6,67,0,13.87,clear sky,0.0,0.0
33,Cayambe,EC,2020-02-22 21:50:13,0.05,-78.13,64.4,77,75,8.05,light rain,0.0,0.0
34,Port Blair,IN,2020-02-22 21:50:13,11.67,92.75,80.6,78,40,4.7,mist,0.0,0.0
35,Victoria,HK,2020-02-22 21:50:14,22.29,114.16,64.99,77,20,20.8,few clouds,0.0,0.0
36,Evensk,RU,2020-02-22 21:44:24,61.95,159.23,-13.77,77,95,4.23,overcast clouds,0.0,0.0
37,Bumba,CD,2020-02-22 21:50:14,2.18,22.47,77.41,43,99,1.59,overcast clouds,0.0,0.0
38,Kahama,TZ,2020-02-22 21:50:14,-3.83,32.6,67.82,85,95,0.85,overcast clouds,0.0,0.0
39,Tchibanga,GA,2020-02-22 21:50:14,-2.85,11.03,75.58,97,100,3.4,light rain,2.56,0.0
40,Krasnyy Yar,RU,2020-02-22 21:50:14,46.53,48.35,30.2,86,100,8.95,overcast clouds,0.0,0.0
41,Lakatoro,VU,2020-02-22 21:48:24,-16.1,167.42,82.4,78,40,1.12,scattered clouds,0.0,0.0
42,Cape Town,ZA,2020-02-22 21:45:24,-33.93,18.42,66.99,77,20,24.16,few clouds,0.0,0.0
43,Gobabis,NA,2020-02-22 21:48:13,-22.45,18.97,71.6,78,62,3.36,broken clouds,0.0,0.0
44,Nosy Varika,MG,2020-02-22 21:50:15,-20.58,48.53,72.61,90,100,7.67,light rain,1.5,0.0
45,Norman Wells,CA,2020-02-22 21:50:16,65.28,-126.83,6.8,77,75,5.82,light snow,0.0,0.0
46,Mafinga,TZ,2020-02-22 21:50:16,-7.25,35.07,70.34,95,100,1.48,moderate rain,7.63,0.0
47,Seymchan,RU,2020-02-22 21:50:16,62.88,152.43,-26.18,88,96,0.94,overcast clouds,0.0,0.0
48,Mana,GF,2020-02-22 21:44:45,5.66,-53.78,81.18,76,100,6.67,light rain,0.19,0.0
49,Maceio,BR,2020-02-22 21:47:31,-9.67,-35.74,82.4,78,20,11.41,few clouds,0.0,0.0
50,Paamiut,GL,2020-02-22 21:50:17,61.99,-49.67,16.95,89,100,14.63,overcast clouds,0.0,0.0
51,Chokurdakh,RU,2020-02-22 21:44:12,70.63,147.92,-13.88,97,100,1.48,overcast clouds,0.0,0.0
52,Ponta Do Sol,PT,2020-02-22 21:50:18,32.67,-17.1,69.01,77,20,18.34,few clouds,0.0,0.0
53,Flinders,AU,2020-02-22 21:46:07,-34.58,150.86,71.01,82,100,2.24,light rain,0.13,0.0
54,Kaitangata,NZ,2020-02-22 21:44:37,-46.28,169.85,62.01,59,66,10.0,broken clouds,0.0,0.0
55,Cherskiy,RU,2020-02-22 21:50:18,68.75,161.3,-20.52,97,96,4.97,overcast clouds,0.0,0.0
56,Pevek,RU,2020-02-22 21:50:19,69.7,170.31,-12.15,98,100,10.78,light snow,0.0,0.13
57,Bandarbeyla,SO,2020-02-22 21:44:42,9.49,50.81,76.86,78,25,17.81,scattered clouds,0.0,0.0
58,Bambous Virieux,MU,2020-02-22 21:50:19,-20.34,57.76,77.0,88,75,3.36,broken clouds,0.0,0.0
59,Aklavik,CA,2020-02-22 21:50:19,68.22,-135.01,1.4,77,90,4.7,light snow,0.0,0.0
60,Barrow,US,2020-02-22 21:46:55,71.29,-156.79,-11.2,76,90,5.82,haze,0.0,0.0
61,Alice Springs,AU,2020-02-22 21:46:43,-23.7,133.88,60.8,31,0,2.24,clear sky,0.0,0.0
62,Great Yarmouth,GB,2020-02-22 21:43:50,52.61,1.73,48.99,75,100,13.87,overcast clouds,0.0,0.0
63,Lebu,CL,2020-02-22 21:50:20,-37.62,-73.65,66.42,62,15,5.06,few clouds,0.0,0.0
64,Mabaruma,GY,2020-02-22 21:44:13,8.2,-59.78,83.23,59,97,5.68,light rain,0.13,0.0
65,Port Alfred,ZA,2020-02-22 21:48:18,-33.59,26.89,62.01,95,100,4.0,light rain,2.19,0.0
66,New Norfolk,AU,2020-02-22 21:43:46,-42.78,147.06,60.01,76,20,6.93,few clouds,0.0,0.0
67,Agadir,MA,2020-02-22 21:47:03,30.42,-9.6,68.0,28,0,5.82,clear sky,0.0,0.0
68,Upernavik,GL,2020-02-22 21:43:35,72.79,-56.15,-15.9,94,78,4.88,broken clouds,0.0,0.0
69,Tezu,IN,2020-02-22 21:47:14,27.92,96.17,63.0,42,100,2.01,overcast clouds,0.0,0.0
70,Bintulu,MY,2020-02-22 21:50:21,3.17,113.03,75.2,100,75,2.24,broken clouds,0.0,0.0
71,Tautira,PF,2020-02-22 21:50:22,-17.73,-149.15,87.8,70,40,13.87,shower rain,0.0,0.0
72,Saskylakh,RU,2020-02-22 21:50:22,71.92,114.08,-13.74,93,39,5.1,scattered clouds,0.0,0.0
73,Ingham,US,2020-02-22 21:50:22,42.6,-84.38,46.0,41,1,10.29,clear sky,0.0,0.0
74,Muroto,JP,2020-02-22 21:43:42,33.28,134.15,37.4,74,20,8.05,few clouds,0.0,0.0
75,Saint George,US,2020-02-22 21:43:38,37.1,-113.58,51.01,81,90,11.41,moderate rain,0.0,0.0
76,Nouakchott,MR,2020-02-22 21:50:23,18.09,-15.98,66.2,93,72,13.87,broken clouds,0.0,0.0
77,Tsagan Aman,RU,2020-02-22 21:50:23,47.56,46.72,34.99,65,100,8.32,overcast clouds,0.0,0.0
78,Pangoa,PE,2020-02-22 21:46:45,-12.12,-73.0,70.02,99,100,0.94,moderate rain,4.0,0.0
79,Cabo San Lucas,MX,2020-02-22 21:50:23,22.89,-109.91,84.2,35,40,9.17,scattered clouds,0.0,0.0
80,Chuy,UY,2020-02-22 21:50:24,-33.7,-53.46,67.87,62,31,11.77,scattered clouds,0.0,0.0
81,Tefe,BR,2020-02-22 21:50:24,-3.35,-64.71,82.4,78,40,9.17,scattered clouds,0.0,0.0
82,Henties Bay,NA,2020-02-22 21:43:38,-22.12,14.28,64.99,87,0,1.01,clear sky,0.0,0.0
83,Mglin,RU,2020-02-22 21:50:24,53.06,32.85,35.24,81,100,19.53,overcast clouds,0.0,0.0
84,Acapulco,MX,2020-02-22 21:44:08,16.86,-99.89,84.2,74,5,10.29,clear sky,0.0,0.0
85,Butaritari,KI,2020-02-22 21:50:24,3.07,172.79,83.89,75,94,6.55,overcast clouds,0.0,0.0
86,Ancud,CL,2020-02-22 21:43:40,-41.87,-73.82,80.6,28,0,5.82,clear sky,0.0,0.0
87,Namibe,AO,2020-02-22 21:45:01,-15.2,12.15,75.34,79,100,15.39,overcast clouds,0.0,0.0
88,Touros,BR,2020-02-22 21:47:28,-5.2,-35.46,82.4,83,75,6.93,broken clouds,0.0,0.0
89,Port Elizabeth,ZA,2020-02-22 21:50:25,-33.92,25.57,67.01,76,100,17.49,light rain,0.94,0.0
90,Puri,IN,2020-02-22 21:50:25,19.8,85.85,66.2,88,0,1.99,mist,0.0,0.0
91,Saint-Philippe,RE,2020-02-22 21:50:26,-21.36,55.77,75.2,69,75,6.93,broken clouds,0.0,0.0
92,Atuona,PF,2020-02-22 21:43:47,-9.8,-139.03,81.86,76,0,13.73,light rain,0.31,0.0
93,Sao Joao Da Barra,BR,2020-02-22 21:42:35,-21.64,-41.05,75.2,78,75,20.8,light rain,0.0,0.0
94,Tam Ky,VN,2020-02-22 21:50:26,15.57,108.48,68.0,94,40,1.12,scattered clouds,0.0,0.0
95,Kavieng,PG,2020-02-22 21:44:45,-2.57,150.8,83.43,73,13,5.53,few clouds,0.0,0.0
96,Fort Frances,CA,2020-02-22 21:50:26,48.6,-93.4,48.2,29,1,10.29,clear sky,0.0,0.0
97,Ilulissat,GL,2020-02-22 21:47:29,69.22,-51.1,-0.4,54,20,5.82,few clouds,0.0,0.0
98,Namatanai,PG,2020-02-22 21:47:00,-3.67,152.43,83.48,75,79,3.67,broken clouds,0.0,0.0
99,Tual,ID,2020-02-22 21:50:27,-5.67,132.75,82.33,78,94,15.39,light rain,0.94,0.0
100,Yulara,AU,2020-02-22 21:41:33,-25.24,130.99,68.0,24,0,9.17,clear sky,0.0,0.0
101,Arraial Do Cabo,BR,2020-02-22 21:42:00,-22.97,-42.03,77.0,88,75,13.87,broken clouds,0.0,0.0
102,Umm Lajj,SA,2020-02-22 21:50:27,25.02,37.27,62.47,49,0,5.39,clear sky,0.0,0.0
103,Bethel,US,2020-02-22 21:43:45,41.37,-73.41,48.99,20,1,8.05,clear sky,0.0,0.0
104,Talnakh,RU,2020-02-22 21:47:08,69.49,88.4,8.6,84,100,24.61,light snow,0.0,0.0
105,Zyryanka,RU,2020-02-22 21:50:28,65.75,150.85,-17.16,95,83,4.03,broken clouds,0.0,0.0
106,Nabire,ID,2020-02-22 21:40:22,-3.37,135.48,71.65,97,100,1.48,light rain,0.75,0.0
107,Kalamnuri,IN,2020-02-22 21:50:28,19.67,77.33,72.99,48,0,7.49,clear sky,0.0,0.0
108,Severo-Kurilsk,RU,2020-02-22 21:43:37,50.68,156.12,7.7,89,31,0.74,scattered clouds,0.0,0.0
109,Iqaluit,CA,2020-02-22 21:43:57,63.75,-68.51,-27.0,60,20,13.87,few clouds,0.0,0.0
110,Iberia,US,2020-02-22 21:47:25,29.95,-91.75,62.01,50,1,5.82,clear sky,0.0,0.0
111,Eresos,GR,2020-02-22 21:50:29,39.17,25.93,47.73,66,0,22.77,clear sky,0.0,0.0
112,East London,ZA,2020-02-22 21:48:23,-33.02,27.91,72.21,81,100,22.64,light rain,1.5,0.0
113,Kapaa,US,2020-02-22 21:45:54,22.08,-159.32,78.8,65,20,6.93,few clouds,0.0,0.0
114,Thompson,CA,2020-02-22 21:50:30,55.74,-97.86,26.6,49,20,2.24,few clouds,0.0,0.0
115,Ornskoldsvik,SE,2020-02-22 21:50:30,63.29,18.72,35.6,74,100,17.22,overcast clouds,0.0,0.0
116,Ainazi,LV,2020-02-22 21:50:30,57.86,24.36,40.19,70,98,32.37,light rain,2.31,0.0
117,Praia Da Vitoria,PT,2020-02-22 21:42:43,38.73,-27.07,55.4,82,40,5.37,scattered clouds,0.0,0.0
118,Tiznit,MA,2020-02-22 21:45:20,29.58,-9.5,65.12,18,0,18.1,clear sky,0.0,0.0
119,Victor Harbor,AU,2020-02-22 21:43:49,-35.57,138.62,72.0,62,0,3.36,clear sky,0.0,0.0
120,Deep River,CA,2020-02-22 21:50:31,46.1,-77.5,39.99,55,20,9.17,few clouds,0.0,0.0
121,Felanitx,ES,2020-02-22 21:50:31,39.47,3.15,51.01,100,20,5.82,few clouds,0.0,0.0
122,Tuktoyaktuk,CA,2020-02-22 21:43:52,69.45,-133.04,3.2,84,90,6.93,light snow,0.0,0.0
123,Tuy Hoa,VN,2020-02-22 21:50:32,13.08,109.3,74.84,80,49,22.08,light rain,1.44,0.0
124,Bulgan,MN,2020-02-22 21:50:32,48.81,103.53,15.71,70,88,3.87,overcast clouds,0.0,0.0
125,Forio,IT,2020-02-22 21:50:32,40.73,13.86,55.0,49,0,2.24,clear sky,0.0,0.0
126,Amga,RU,2020-02-22 21:47:51,60.9,131.96,-1.03,98,97,1.68,light snow,0.0,0.13
127,Oussouye,SN,2020-02-22 21:47:50,12.48,-16.55,75.2,88,73,4.7,broken clouds,0.0,0.0
128,Kedrovyy,RU,2020-02-22 21:48:57,56.17,91.82,21.2,92,75,1.92,broken clouds,0.0,0.0
129,Ongandjera,NA,2020-02-22 21:45:15,-17.88,15.07,84.16,33,95,6.58,overcast clouds,0.0,0.0
130,Hilo,US,2020-02-22 21:46:41,19.73,-155.09,80.6,54,20,6.93,few clouds,0.0,0.0
131,Ust-Koksa,RU,2020-02-22 21:50:33,50.27,85.61,20.44,95,100,8.72,light snow,0.0,1.31
132,Nanortalik,GL,2020-02-22 21:44:31,60.14,-45.24,27.57,89,100,17.9,snow,0.0,2.13
133,Malartic,CA,2020-02-22 21:50:33,48.13,-78.13,39.2,48,40,11.41,scattered clouds,0.0,0.0
134,Dankov,RU,2020-02-22 21:50:34,53.25,39.16,28.4,86,88,8.95,overcast clouds,0.0,0.0
135,Tilichiki,RU,2020-02-22 21:44:26,60.47,166.1,-14.67,92,0,3.0,clear sky,0.0,0.0
136,Harper,LR,2020-02-22 21:50:34,4.38,-7.72,78.24,93,98,4.65,overcast clouds,0.0,0.0
137,Hithadhoo,MV,2020-02-22 21:50:35,-0.6,73.08,82.15,81,89,14.03,overcast clouds,0.0,0.0
138,Cabo Rojo,PR,2020-02-22 21:44:39,18.09,-67.15,82.99,61,75,6.93,broken clouds,0.0,0.0
139,Changde,CN,2020-02-22 21:50:36,29.05,111.68,48.45,83,29,3.27,scattered clouds,0.0,0.0
140,Vazante,BR,2020-02-22 21:50:36,-17.99,-46.91,75.96,87,100,6.58,light rain,2.81,0.0
141,Bathsheba,BB,2020-02-22 21:45:02,13.22,-59.52,82.4,69,20,9.17,few clouds,0.0,0.0
142,Yanam,IN,2020-02-22 21:50:36,16.73,82.22,67.64,89,0,2.75,clear sky,0.0,0.0
143,Katsuura,JP,2020-02-22 21:44:31,35.13,140.3,51.01,45,20,5.82,few clouds,0.0,0.0
144,Oktyabrskoye,RU,2020-02-22 21:50:37,43.06,44.74,32.27,83,96,0.74,overcast clouds,0.0,0.0
145,Yining,CN,2020-02-22 21:46:53,29.04,114.56,48.49,77,54,1.66,broken clouds,0.0,0.0
146,Hasaki,JP,2020-02-22 21:43:45,35.73,140.83,46.4,42,20,4.7,few clouds,0.0,0.0
147,Galle,LK,2020-02-22 21:50:37,6.04,80.22,80.82,76,100,14.05,overcast clouds,0.0,0.0
148,Husavik,IS,2020-02-22 21:43:43,66.04,-17.34,21.94,87,100,10.38,overcast clouds,0.0,0.0
149,Puerto Quijarro,BO,2020-02-22 21:44:54,-17.78,-57.77,72.21,87,100,1.57,overcast clouds,0.0,0.0
150,Besikduzu,TR,2020-02-22 21:50:38,41.05,39.23,46.4,87,75,11.41,light rain,0.0,0.0
151,Mahebourg,MU,2020-02-22 21:50:38,-20.41,57.7,77.0,88,75,3.36,broken clouds,0.0,0.0
152,Airai,TL,2020-02-22 21:50:38,-8.93,125.41,66.29,82,8,4.83,clear sky,0.0,0.0
153,Atikokan,CA,2020-02-22 21:50:39,48.76,-91.62,34.45,87,20,8.28,few clouds,0.0,0.0
154,Sefton,NZ,2020-02-22 21:50:39,-43.25,172.67,66.0,67,0,4.7,clear sky,0.0,0.0
155,Bosansko Grahovo,BA,2020-02-22 21:50:39,44.18,16.36,44.01,66,82,1.41,broken clouds,0.0,0.0
156,Ayan,RU,2020-02-22 21:50:39,56.45,138.17,-0.44,71,72,5.19,broken clouds,0.0,0.0
157,Lantawan,PH,2020-02-22 21:50:40,10.62,123.98,75.2,83,40,6.93,scattered clouds,0.0,0.0
158,Cidreira,BR,2020-02-22 21:50:40,-30.18,-50.21,70.93,67,15,17.34,light rain,0.25,0.0
159,Port Lincoln,AU,2020-02-22 21:43:36,-34.73,135.87,64.6,82,0,6.15,clear sky,0.0,0.0
160,Tiksi,RU,2020-02-22 21:47:03,71.69,128.87,-11.67,90,90,7.4,overcast clouds,0.0,0.0
161,Bengkulu,ID,2020-02-22 21:50:41,-3.8,102.27,73.42,89,2,4.56,clear sky,0.0,0.0
162,Sabancuy,MX,2020-02-22 21:50:41,18.97,-91.18,81.72,54,3,9.95,clear sky,0.0,0.0
163,San Juan,AR,2020-02-22 21:46:14,-31.54,-68.54,82.94,25,0,7.07,clear sky,0.0,0.0
164,Buala,SB,2020-02-22 21:50:41,-8.14,159.59,81.03,80,2,3.71,light rain,2.25,0.0
165,Coos Bay,US,2020-02-22 21:50:41,43.37,-124.22,57.99,66,1,9.17,clear sky,0.0,0.0
166,Bluefields,NI,2020-02-22 21:50:42,12.01,-83.76,84.2,74,20,6.93,few clouds,0.0,0.0
167,Mayo,US,2020-02-22 21:45:07,38.89,-76.51,55.0,27,1,8.05,clear sky,0.0,0.0
168,Vaini,TO,2020-02-22 21:50:42,-21.2,-175.2,80.6,88,75,9.17,light intensity shower rain,0.0,0.0
169,Codrington,AU,2020-02-22 21:49:12,-38.27,141.97,58.05,77,0,7.23,clear sky,0.0,0.0
170,Alyangula,AU,2020-02-22 21:50:42,-13.85,136.42,77.0,100,75,5.82,shower rain,0.0,0.0
171,Nuuk,GL,2020-02-22 21:44:46,64.18,-51.72,14.0,72,90,16.11,shower rain,0.0,0.0
172,Tocopilla,CL,2020-02-22 21:50:43,-22.09,-70.2,71.22,56,94,9.93,overcast clouds,0.0,0.0
173,Bestobe,KZ,2020-02-22 21:50:43,52.5,73.1,17.55,93,31,8.3,scattered clouds,0.0,0.0
174,Lompoc,US,2020-02-22 21:43:44,34.64,-120.46,63.0,55,90,10.29,overcast clouds,0.0,0.0
175,Kodiak,US,2020-02-22 21:43:50,57.79,-152.41,21.2,53,1,10.29,clear sky,0.0,0.0
176,Smoky Lake,CA,2020-02-22 21:50:43,54.12,-112.47,31.39,75,32,14.43,scattered clouds,0.0,0.0
177,Inhambane,MZ,2020-02-22 21:43:58,-23.86,35.38,81.41,78,0,6.17,clear sky,0.0,0.0
178,Damghan,IR,2020-02-22 21:50:44,36.17,54.35,48.76,64,0,4.41,clear sky,0.0,0.0
179,Canto Do Buriti,BR,2020-02-22 21:50:44,-8.11,-42.94,80.02,76,90,1.61,overcast clouds,0.0,0.0
180,Hami,CN,2020-02-22 21:45:03,42.8,93.45,29.79,53,9,4.85,clear sky,0.0,0.0
181,Carnarvon,AU,2020-02-22 21:50:44,-24.87,113.63,75.2,83,40,5.82,scattered clouds,0.0,0.0
182,Narsaq,GL,2020-02-22 21:44:32,60.92,-46.05,21.2,37,100,18.34,overcast clouds,0.0,0.0
183,Muros,ES,2020-02-22 21:44:31,42.78,-9.06,57.99,100,90,4.7,fog,0.0,0.0
184,Gat,IL,2020-02-22 21:45:19,31.61,34.76,54.0,87,75,3.36,broken clouds,0.0,0.0
185,Leshukonskoye,RU,2020-02-22 21:45:13,64.9,45.76,33.04,82,100,16.71,overcast clouds,0.0,0.0
186,Sabang,ID,2020-02-22 21:47:46,5.89,95.32,82.15,77,23,23.76,light rain,0.31,0.0
187,Sitka,US,2020-02-22 21:44:24,57.05,-135.33,37.4,80,75,10.29,broken clouds,0.0,0.0
188,Nouadhibou,MR,2020-02-22 21:44:02,20.93,-17.03,62.6,82,13,17.22,few clouds,0.0,0.0
189,Ust-Kuyga,RU,2020-02-22 21:50:46,70.02,135.6,-13.22,100,83,1.68,broken clouds,0.0,0.0
190,Palmer,US,2020-02-22 21:45:21,42.16,-72.33,46.99,26,20,10.29,few clouds,0.0,0.0
191,Nikolskoye,RU,2020-02-22 21:46:59,59.7,30.79,34.0,93,90,13.42,shower sleet,0.0,0.0
192,Makakilo City,US,2020-02-22 21:44:49,21.35,-158.09,78.8,57,75,11.41,shower rain,0.0,0.0
193,Longyearbyen,SJ,2020-02-22 21:48:14,78.22,15.64,-0.4,70,20,12.75,few clouds,0.0,0.0
194,Vila Velha,BR,2020-02-22 21:46:03,-20.33,-40.29,78.8,88,90,6.93,overcast clouds,0.0,0.0
195,Shreveport,US,2020-02-22 21:50:47,32.53,-93.75,57.99,33,1,5.82,clear sky,0.0,0.0
196,Fortuna,US,2020-02-22 21:43:59,40.6,-124.16,61.0,87,40,5.82,scattered clouds,0.0,0.0
197,Souillac,MU,2020-02-22 21:50:47,-20.52,57.52,77.0,88,75,3.36,broken clouds,0.0,0.0
198,Provideniya,RU,2020-02-22 21:42:13,64.38,-173.3,-14.6,87,18,2.73,few clouds,0.0,0.0
199,Geraldton,AU,2020-02-22 21:46:37,-28.77,114.6,69.8,88,0,8.05,clear sky,0.0,0.0
200,Davila,PH,2020-02-22 21:50:48,18.47,120.58,60.8,87,20,2.24,few clouds,0.0,0.0
201,San Ignacio,BZ,2020-02-22 21:50:48,17.16,-89.07,82.0,69,75,4.7,broken clouds,0.0,0.0
202,Bubaque,GW,2020-02-22 21:44:45,11.28,-15.83,79.5,71,100,19.66,overcast clouds,0.0,0.0
203,Bredasdorp,ZA,2020-02-22 21:50:49,-34.53,20.04,64.4,68,93,6.93,overcast clouds,0.0,0.0
204,Port Macquarie,AU,2020-02-22 21:44:47,-31.43,152.92,68.0,100,75,3.36,broken clouds,0.0,0.0
205,Rio Verde De Mato Grosso,BR,2020-02-22 21:50:49,-18.92,-54.84,70.47,97,100,2.59,light rain,2.0,0.0
206,Betioky,MG,2020-02-22 21:50:49,-23.72,44.38,76.3,87,29,1.97,moderate rain,7.31,0.0
207,Saint-Remi,CA,2020-02-22 21:50:49,45.27,-73.62,39.2,55,1,8.05,clear sky,0.0,0.0
208,Georgetown,MY,2020-02-22 21:50:28,5.41,100.34,80.6,78,20,2.24,few clouds,0.0,0.0
209,Viedma,AR,2020-02-22 21:50:50,-40.81,-63.0,78.15,26,0,1.1,clear sky,0.0,0.0
210,San Patricio,MX,2020-02-22 21:46:50,19.22,-104.7,82.4,74,20,11.41,few clouds,0.0,0.0
211,Sioux Lookout,CA,2020-02-22 21:50:50,50.1,-91.92,41.0,41,75,5.82,broken clouds,0.0,0.0
212,Morgan City,US,2020-02-22 21:50:50,29.7,-91.21,63.0,51,20,8.05,few clouds,0.0,0.0
213,Ixtapa,MX,2020-02-22 21:44:47,20.7,-105.2,84.2,62,5,9.17,clear sky,0.0,0.0
214,Fare,PF,2020-02-22 21:50:51,-16.7,-151.02,82.36,73,22,9.53,light rain,0.56,0.0
215,Bambanglipuro,ID,2020-02-22 21:44:44,-7.95,110.28,74.84,91,29,1.79,light rain,1.0,0.0
216,Uyuni,BO,2020-02-22 21:46:42,-20.46,-66.83,61.86,41,86,5.57,overcast clouds,0.0,0.0
217,Izumo,JP,2020-02-22 21:50:51,35.37,132.77,44.6,56,75,10.29,broken clouds,0.0,0.0
218,Komsomolskiy,UZ,2020-02-22 21:44:14,40.43,71.72,44.6,86,87,6.93,mist,0.0,0.0
219,Aras,ES,2020-02-22 21:50:52,42.56,-2.36,48.0,86,9,6.93,clear sky,0.0,0.0
220,Gawler,AU,2020-02-22 21:50:52,-34.6,138.73,73.0,62,0,3.36,clear sky,0.0,0.0
221,Nanzhang,CN,2020-02-22 21:50:52,31.78,111.84,50.67,66,52,2.21,broken clouds,0.0,0.0
222,Mount Gambier,AU,2020-02-22 21:43:41,-37.83,140.77,50.0,100,3,3.33,clear sky,0.0,0.0
223,Quelimane,MZ,2020-02-22 21:44:01,-17.88,36.89,78.57,78,58,3.6,broken clouds,0.0,0.0
224,Srednekolymsk,RU,2020-02-22 21:42:35,67.45,153.68,-27.51,100,95,1.21,overcast clouds,0.0,0.0
225,Camabatela,AO,2020-02-22 21:50:53,-8.19,15.38,66.27,97,100,3.58,light rain,2.13,0.0
226,Chicama,PE,2020-02-22 21:50:53,-7.84,-79.15,73.4,88,73,11.41,haze,0.0,0.0
227,Kropotkin,RU,2020-02-22 21:50:53,45.44,40.58,42.67,88,100,4.63,overcast clouds,0.0,0.0
228,Pangkalanbuun,ID,2020-02-22 21:50:53,-2.68,111.62,73.2,98,51,1.63,light rain,0.31,0.0
229,Pisco,PE,2020-02-22 21:45:16,-13.7,-76.22,77.0,30,20,11.41,few clouds,0.0,0.0
230,Beloha,MG,2020-02-22 21:45:03,-25.17,45.05,77.22,81,3,9.06,clear sky,0.0,0.0
231,Bilma,NE,2020-02-22 21:45:14,18.69,12.92,71.37,14,100,13.78,overcast clouds,0.0,0.0
232,Pangnirtung,CA,2020-02-22 21:44:17,66.15,-65.71,-32.06,97,20,2.48,few clouds,0.0,0.0
233,Sao Geraldo Do Araguaia,BR,2020-02-22 21:50:54,-6.4,-48.55,80.56,85,47,1.45,scattered clouds,0.0,0.0
234,Mastic Beach,US,2020-02-22 21:48:01,40.77,-72.85,48.99,41,1,9.17,clear sky,0.0,0.0
235,Fomboni,KM,2020-02-22 21:50:54,-12.28,43.74,84.94,78,100,13.31,light rain,0.81,0.0
236,Sao Mateus Do Maranhao,BR,2020-02-22 21:50:54,-4.04,-44.48,78.06,93,100,3.06,moderate rain,7.38,0.0
237,Udon Thani,TH,2020-02-22 21:50:55,17.42,102.79,65.62,72,0,6.29,clear sky,0.0,0.0
238,Beneditinos,BR,2020-02-22 21:50:55,-5.45,-42.37,84.2,66,90,10.29,thunderstorm with light rain,0.0,0.0
239,Taber,CA,2020-02-22 21:50:55,49.82,-112.15,48.99,34,40,29.97,scattered clouds,0.0,0.0
240,Bonavista,CA,2020-02-22 21:44:28,48.65,-53.11,24.01,72,85,10.0,overcast clouds,0.0,0.0
241,La Palma,US,2020-02-22 21:50:21,33.85,-118.05,64.99,63,75,9.17,thunderstorm with light rain,0.0,0.0
242,Yar-Sale,RU,2020-02-22 21:45:14,66.83,70.83,20.55,90,93,18.79,overcast clouds,0.0,0.0
243,Yenagoa,NG,2020-02-22 21:50:56,4.92,6.26,83.68,72,59,7.47,light rain,0.63,0.0
244,Anadyr,RU,2020-02-22 21:44:51,64.75,177.48,-16.6,68,0,6.71,clear sky,0.0,0.0
245,Saint-Paul,RE,2020-02-22 21:50:56,-21.01,55.27,75.2,78,100,4.7,overcast clouds,0.0,0.0
246,Vao,NC,2020-02-22 21:50:57,-22.67,167.48,79.23,73,0,10.69,clear sky,0.0,0.0
247,Buraydah,SA,2020-02-22 21:41:45,26.33,43.98,64.4,42,0,9.17,clear sky,0.0,0.0
248,Corinto,GR,2020-02-22 21:45:09,37.94,22.96,46.99,87,75,9.17,light rain,0.0,0.0
249,Deniliquin,AU,2020-02-22 21:50:57,-35.53,144.97,72.64,61,0,12.3,clear sky,0.0,0.0
250,Torbay,CA,2020-02-22 21:50:57,47.67,-52.73,25.0,67,20,20.8,few clouds,0.0,0.0
251,Torit,SS,2020-02-22 21:50:57,4.41,32.57,83.12,53,100,2.55,overcast clouds,0.0,0.0
252,Moranbah,AU,2020-02-22 21:50:58,-22.0,148.05,73.76,83,99,15.79,overcast clouds,0.0,0.0
253,Turukhansk,RU,2020-02-22 21:43:52,65.82,87.98,4.78,97,100,6.11,overcast clouds,0.0,0.0
254,Saint Anthony,US,2020-02-22 21:50:58,45.02,-93.22,45.0,52,75,11.41,broken clouds,0.0,0.0
255,Mount Pleasant,US,2020-02-22 21:50:48,32.79,-79.86,57.99,34,1,4.7,clear sky,0.0,0.0
256,Yumen,CN,2020-02-22 21:44:14,40.28,97.2,29.14,38,0,5.77,clear sky,0.0,0.0
257,Harwich,GB,2020-02-22 21:50:59,51.94,1.28,52.0,66,75,18.34,broken clouds,0.0,0.0
258,Abu Samrah,SY,2020-02-22 21:41:38,35.3,37.18,48.97,84,100,5.3,overcast clouds,0.0,0.0
259,San Carlos De Bariloche,AR,2020-02-22 21:50:59,-41.15,-71.31,77.0,22,0,18.34,clear sky,0.0,0.0
260,Tuatapere,NZ,2020-02-22 21:48:14,-46.13,167.68,60.01,77,32,15.01,scattered clouds,0.0,0.0
261,Lagoa,PT,2020-02-22 21:50:59,39.05,-27.98,59.61,81,0,10.2,clear sky,0.0,0.0
262,Grindavik,IS,2020-02-22 21:51:00,63.84,-22.43,30.2,80,75,6.93,light snow,0.0,0.0
263,Diapaga,BF,2020-02-22 21:51:00,12.07,1.79,82.72,15,0,7.85,clear sky,0.0,0.0
264,Mount Isa,AU,2020-02-22 21:49:27,-20.73,139.5,78.8,74,40,6.93,scattered clouds,0.0,0.0
265,Lorengau,PG,2020-02-22 21:51:00,-2.02,147.27,82.4,75,52,7.67,broken clouds,0.0,0.0
266,Senno,RU,2020-02-22 21:51:00,59.53,33.92,33.01,92,100,17.0,snow,0.0,2.38
267,Boyolangu,ID,2020-02-22 21:45:16,-8.12,111.89,73.51,91,40,0.56,light rain,0.69,0.0
268,Nalut,LY,2020-02-22 21:51:01,30.33,10.85,50.5,59,0,12.39,clear sky,0.0,0.0
269,La Ronge,CA,2020-02-22 21:43:42,55.1,-105.28,39.2,51,90,8.05,overcast clouds,0.0,0.0
270,Khatanga,RU,2020-02-22 21:43:30,71.97,102.5,6.87,83,100,14.27,overcast clouds,0.0,0.0
271,Voh,NC,2020-02-22 21:51:01,-20.97,164.7,78.49,77,0,4.85,clear sky,0.0,0.0
272,Asau,RO,2020-02-22 21:44:47,46.43,26.4,34.0,80,0,5.82,clear sky,0.0,0.0
273,Monrovia,LR,2020-02-22 21:45:21,6.3,-10.8,78.8,94,20,9.04,few clouds,0.0,0.0
274,Butterworth,MY,2020-02-22 21:51:02,5.4,100.36,80.6,78,20,2.24,few clouds,0.0,0.0
275,Novo Aripuana,BR,2020-02-22 21:51:02,-5.12,-60.38,79.66,87,100,2.04,overcast clouds,0.0,0.0
276,Beyneu,KZ,2020-02-22 21:51:02,45.32,55.2,34.41,78,61,9.89,broken clouds,0.0,0.0
277,Camacha,PT,2020-02-22 21:51:03,33.08,-16.33,64.4,88,40,28.86,scattered clouds,0.0,0.0
278,Angoche,MZ,2020-02-22 21:51:03,-16.23,39.91,77.88,90,100,4.79,light rain,1.94,0.0
279,Korla,CN,2020-02-22 21:51:03,41.76,86.15,25.97,49,0,2.86,clear sky,0.0,0.0
280,Luderitz,NA,2020-02-22 21:42:19,-26.65,15.16,66.2,77,0,19.46,clear sky,0.0,0.0
281,Hamilton,US,2020-02-22 21:39:23,39.18,-84.53,50.0,21,1,8.05,clear sky,0.0,0.0
282,Winchester,GB,2020-02-22 21:51:03,51.07,-1.32,51.01,76,100,17.22,overcast clouds,0.0,0.0
283,Mecca,SA,2020-02-22 21:48:32,21.43,39.83,69.26,49,0,2.19,clear sky,0.0,0.0
284,Chunoyar,RU,2020-02-22 21:51:04,57.45,97.32,7.84,97,78,2.75,broken clouds,0.0,0.0
285,Develi,TR,2020-02-22 21:51:04,38.39,35.49,37.4,93,75,2.51,broken clouds,0.0,0.0
286,Rio Grande,BR,2020-02-22 21:44:38,-32.03,-52.1,69.8,64,75,14.99,broken clouds,0.0,0.0
287,Fort Saint James,CA,2020-02-22 21:51:04,54.43,-124.25,30.87,81,33,8.1,scattered clouds,0.0,0.0
288,Tommot,RU,2020-02-22 21:45:06,58.96,126.29,10.0,96,100,5.12,light snow,0.0,0.5
289,Zhigansk,RU,2020-02-22 21:43:34,66.77,123.37,-10.16,96,100,7.16,overcast clouds,0.0,0.0
290,Broome,US,2020-02-22 21:47:01,42.25,-75.83,44.01,44,1,6.93,clear sky,0.0,0.0
291,Sampit,ID,2020-02-22 21:44:05,-2.53,112.95,73.81,94,100,0.11,overcast clouds,0.0,0.0
292,Cockburn Town,TC,2020-02-22 21:51:05,21.46,-71.14,78.8,74,75,9.17,broken clouds,0.0,0.0
293,Kamenka,RU,2020-02-22 21:46:42,51.32,42.77,30.0,93,100,7.0,overcast clouds,0.0,0.0
294,Cayenne,GF,2020-02-22 21:45:13,4.93,-52.33,82.4,78,90,11.41,overcast clouds,0.0,0.0
295,Panguna,PG,2020-02-22 21:51:06,-6.32,155.48,74.7,85,55,0.65,light rain,1.31,0.0
296,Saldanha,ZA,2020-02-22 21:44:18,-33.01,17.94,66.2,77,85,11.41,overcast clouds,0.0,0.0
297,Todos Santos,MX,2020-02-22 21:51:06,23.45,-110.22,84.2,35,40,9.17,scattered clouds,0.0,0.0
298,Nanaimo,CA,2020-02-22 21:46:17,49.17,-123.94,48.2,57,75,12.75,broken clouds,0.0,0.0
299,Tessalit,ML,2020-02-22 21:45:03,20.2,1.01,75.79,9,99,10.51,overcast clouds,0.0,0.0
300,Oksfjord,NO,2020-02-22 21:51:07,70.24,22.35,33.8,64,85,14.99,overcast clouds,0.0,0.0
301,Salalah,OM,2020-02-22 21:44:42,17.02,54.09,75.2,73,75,2.24,broken clouds,0.0,0.0
302,Chardara,KZ,2020-02-22 21:46:44,41.25,67.97,44.29,74,62,8.21,broken clouds,0.0,0.0
303,Arrecife,ES,2020-02-22 21:51:07,28.96,-13.55,71.6,40,0,26.4,clear sky,0.0,0.0
304,Celestun,MX,2020-02-22 21:51:07,20.87,-90.4,71.47,73,1,19.89,clear sky,0.0,0.0
305,Katsina,NG,2020-02-22 21:51:08,12.99,7.6,74.59,15,0,11.39,clear sky,0.0,0.0
306,Sterling,US,2020-02-22 21:51:08,39.01,-77.43,55.4,18,1,6.93,clear sky,0.0,0.0
307,Cururupu,BR,2020-02-22 21:51:08,-1.83,-44.87,77.77,96,94,2.57,moderate rain,3.19,0.0
308,Saint-Joseph,RE,2020-02-22 21:44:34,-21.37,55.62,75.2,69,75,6.93,broken clouds,0.0,0.0
309,Pyapon,MM,2020-02-22 21:51:09,16.28,95.68,68.5,61,0,4.85,clear sky,0.0,0.0
310,Asfi,MA,2020-02-22 21:39:33,32.3,-9.24,58.82,63,0,9.13,clear sky,0.0,0.0
311,Zverinogolovskoye,RU,2020-02-22 21:44:08,54.46,64.85,18.52,99,70,3.06,broken clouds,0.0,0.0
312,Westport,US,2020-02-22 21:44:11,41.14,-73.36,51.01,42,1,13.87,clear sky,0.0,0.0
313,Flin Flon,CA,2020-02-22 21:51:09,54.77,-101.86,41.0,48,40,9.17,scattered clouds,0.0,0.0
314,Berlevag,NO,2020-02-22 21:44:45,70.86,29.09,36.25,77,0,31.68,clear sky,0.0,0.0
315,Norden,DE,2020-02-22 21:51:10,53.6,7.2,46.99,65,75,25.28,broken clouds,0.0,0.0
316,Xining,CN,2020-02-22 21:51:10,36.62,101.77,26.65,25,0,5.79,clear sky,0.0,0.0
317,San Rafael,AR,2020-02-22 21:47:05,-34.62,-68.33,76.86,29,0,18.75,clear sky,0.0,0.0
318,San Cristobal,VE,2020-02-22 21:44:50,7.77,-72.22,84.2,58,40,12.75,haze,0.0,0.0
319,Serdobsk,RU,2020-02-22 21:51:10,52.46,44.22,22.82,95,100,8.03,overcast clouds,0.0,0.0
320,Somerset,US,2020-02-22 21:51:10,40.57,-74.55,51.8,16,1,4.7,clear sky,0.0,0.0
321,Nileshwar,IN,2020-02-22 21:51:11,12.25,75.1,77.0,94,20,4.7,mist,0.0,0.0
322,Amherst,US,2020-02-22 21:49:25,41.4,-82.22,46.99,39,1,19.46,clear sky,0.0,0.0
323,Hokitika,NZ,2020-02-22 21:51:11,-42.72,170.97,55.47,69,0,6.06,clear sky,0.0,0.0
324,Safford,US,2020-02-22 21:51:11,32.83,-109.71,53.6,87,90,13.87,overcast clouds,0.0,0.0
325,Port Hardy,CA,2020-02-22 21:47:47,50.7,-127.42,42.8,87,40,11.41,scattered clouds,0.0,0.0
326,Tadine,NC,2020-02-22 21:51:12,-21.55,167.88,79.32,74,13,11.48,few clouds,0.0,0.0
327,Ugoofaaru,MV,2020-02-22 21:44:04,5.67,73.0,82.83,77,63,15.12,broken clouds,0.0,0.0
328,Mattru,SL,2020-02-22 21:48:54,7.62,-11.83,80.96,79,77,5.23,broken clouds,0.0,0.0
329,Ambulu,ID,2020-02-22 21:51:12,-8.35,113.61,79.48,81,96,5.44,overcast clouds,0.0,0.0
330,Acari,PE,2020-02-22 21:51:13,-15.43,-74.62,73.15,70,29,10.29,scattered clouds,0.0,0.0
331,Mogadishu,SO,2020-02-22 21:51:13,2.04,45.34,81.72,85,0,23.51,clear sky,0.0,0.0
332,Sistranda,NO,2020-02-22 21:47:22,63.73,8.83,37.4,86,75,25.28,shower rain,0.0,0.0
333,Deming,US,2020-02-22 21:51:13,32.27,-107.76,55.4,71,90,6.53,moderate rain,0.0,0.0
334,Greymouth,NZ,2020-02-22 21:51:13,-42.47,171.2,55.47,69,0,6.06,clear sky,0.0,0.0
335,Lichuan,CN,2020-02-22 21:51:14,30.3,108.85,40.95,90,86,3.42,overcast clouds,0.0,0.0
336,Ranong,TH,2020-02-22 21:51:14,9.97,98.63,78.67,74,85,6.08,overcast clouds,0.0,0.0
337,Rocha,UY,2020-02-22 21:51:14,-34.48,-54.33,64.8,60,32,9.98,scattered clouds,0.0,0.0
338,Wilkie,CA,2020-02-22 21:51:14,52.42,-108.7,33.01,95,20,18.34,few clouds,0.0,0.0
339,Namalenga,TZ,2020-02-22 21:51:14,-10.95,39.1,74.43,96,100,1.63,overcast clouds,0.0,0.0
340,Vostok,RU,2020-02-22 21:44:44,46.49,135.88,8.71,96,100,5.01,light snow,0.0,0.69
341,College,US,2020-02-22 21:51:15,64.86,-147.8,10.99,78,90,5.82,overcast clouds,0.0,0.0
342,Uvinza,TZ,2020-02-22 21:49:12,-5.1,30.39,67.57,94,99,0.74,light rain,0.63,0.0
343,Emirdag,TR,2020-02-22 21:51:15,39.02,31.15,28.49,97,100,9.6,light snow,0.0,0.81
344,Nelson Bay,AU,2020-02-22 21:43:37,-32.72,152.15,75.0,82,100,1.81,overcast clouds,0.0,0.0
345,Outjo,NA,2020-02-22 21:51:16,-20.12,16.15,68.0,94,81,7.23,light rain,0.5,0.0
346,Kahului,US,2020-02-22 21:41:57,20.89,-156.47,80.6,51,40,6.93,scattered clouds,0.0,0.0
347,Belyy Yar,RU,2020-02-22 21:51:16,53.6,91.39,19.4,85,100,6.71,overcast clouds,0.0,0.0
348,Necochea,AR,2020-02-22 21:45:14,-38.55,-58.74,66.99,73,0,4.0,clear sky,0.0,0.0
349,Tara,RU,2020-02-22 21:51:16,56.89,74.37,15.78,95,100,4.45,overcast clouds,0.0,0.0
350,Grevena,GR,2020-02-22 21:51:16,40.08,21.43,35.6,51,0,9.17,clear sky,0.0,0.0
351,Kabare,CD,2020-02-22 21:51:18,-2.47,28.82,61.5,93,96,0.25,overcast clouds,0.0,0.0
352,Fez,MA,2020-02-22 21:51:18,34.04,-5.0,53.6,58,0,9.17,clear sky,0.0,0.0
353,Sikonge,TZ,2020-02-22 21:51:18,-5.63,32.77,71.6,94,20,2.73,few clouds,0.0,0.0
354,Kaliganj,BD,2020-02-22 21:51:18,23.41,89.14,67.17,43,31,5.39,scattered clouds,0.0,0.0
355,Baijiantan,CN,2020-02-22 21:51:18,45.63,85.18,19.56,91,100,2.98,overcast clouds,0.0,0.0
356,Nizhniy Odes,RU,2020-02-22 21:51:19,63.64,54.86,31.37,88,100,13.02,overcast clouds,0.0,0.0
357,Gilbert,US,2020-02-22 21:49:22,33.35,-111.79,69.01,82,90,24.16,moderate rain,0.0,0.0
358,Reconquista,AR,2020-02-22 21:51:19,-29.15,-59.65,79.81,27,0,9.42,clear sky,0.0,0.0
359,Lincoln,US,2020-02-22 21:43:06,40.8,-96.67,59.0,55,1,14.99,clear sky,0.0,0.0
360,Desbiens,CA,2020-02-22 21:51:20,48.42,-71.95,37.4,47,90,9.17,overcast clouds,0.0,0.0
361,Amboasary,MG,2020-02-22 21:51:20,-25.03,46.38,78.8,78,20,18.34,few clouds,0.0,0.0
362,Zeya,RU,2020-02-22 21:44:51,53.75,127.27,-10.12,100,68,1.77,broken clouds,0.0,0.0
363,Ossora,RU,2020-02-22 21:51:20,59.24,163.07,-9.67,80,9,1.63,clear sky,0.0,0.0
364,Meulaboh,ID,2020-02-22 21:44:38,4.14,96.13,83.14,69,93,5.21,light rain,1.13,0.0
365,Lannion,FR,2020-02-22 21:51:21,48.75,-3.42,53.01,100,90,16.11,overcast clouds,0.0,0.0
366,Sijunjung,ID,2020-02-22 21:46:56,-0.69,100.95,69.22,97,39,1.92,light rain,0.94,0.0
367,Yuanping,CN,2020-02-22 21:43:56,38.72,112.76,29.7,34,0,1.74,clear sky,0.0,0.0
368,Almaznyy,RU,2020-02-22 21:51:22,48.04,40.05,32.0,99,75,2.24,light rain,0.0,0.0
369,Johnson City,US,2020-02-22 21:51:22,36.31,-82.35,53.01,21,1,5.82,clear sky,0.0,0.0
370,Nyagan,RU,2020-02-22 21:49:18,62.14,65.39,22.46,91,97,10.0,overcast clouds,0.0,0.0
371,Byron Bay,AU,2020-02-22 21:48:07,-28.65,153.62,73.0,94,75,9.17,broken clouds,0.0,0.0
372,Tasiilaq,GL,2020-02-22 21:51:22,65.61,-37.64,15.8,66,100,2.24,overcast clouds,0.0,0.0
373,Dunedin,NZ,2020-02-22 21:51:23,-45.87,170.5,54.72,61,73,6.38,broken clouds,0.0,0.0
374,Luunja,EE,2020-02-22 21:51:23,58.36,26.88,39.0,93,100,23.04,moderate rain,4.75,0.0
375,Pedro Juan Caballero,PY,2020-02-22 21:51:23,-22.55,-55.73,75.2,36,81,13.87,broken clouds,0.0,0.0
376,Kijang,KR,2020-02-22 21:44:21,35.24,129.21,33.8,55,0,4.7,clear sky,0.0,0.0
377,Ayotzintepec,MX,2020-02-22 21:51:23,17.67,-96.13,64.72,81,99,3.83,overcast clouds,0.0,0.0
378,North Bend,US,2020-02-22 21:51:24,43.41,-124.22,57.99,66,1,9.17,clear sky,0.0,0.0
379,Canguaretama,BR,2020-02-22 21:51:24,-6.38,-35.13,82.4,83,75,8.05,broken clouds,0.0,0.0
380,Wanning,CN,2020-02-22 21:51:24,18.8,110.4,63.61,91,36,4.5,scattered clouds,0.0,0.0
381,Clyde River,CA,2020-02-22 21:44:10,70.47,-68.59,-27.4,74,1,4.7,clear sky,0.0,0.0
382,Ostrovnoy,RU,2020-02-22 21:44:36,68.05,39.51,33.8,95,100,35.61,light snow,0.0,0.31
383,Verkhnyaya Inta,RU,2020-02-22 21:51:25,65.98,60.31,30.42,86,100,18.28,light snow,0.0,0.25
384,Safaga,EG,2020-02-22 21:51:25,26.73,33.94,52.52,69,0,2.46,clear sky,0.0,0.0
385,Villapinzon,CO,2020-02-22 21:51:25,5.22,-73.59,62.71,86,97,2.62,moderate rain,3.13,0.0
386,Dmitriyevka,RU,2020-02-22 21:51:25,54.75,55.33,23.0,92,40,6.71,mist,0.0,0.0
387,Cam Ranh,VN,2020-02-22 21:51:26,11.92,109.16,77.0,78,40,12.75,scattered clouds,0.0,0.0
388,Staroutkinsk,RU,2020-02-22 21:51:26,57.23,59.33,19.08,97,69,4.81,broken clouds,0.0,0.0
389,Vilhena,BR,2020-02-22 21:43:18,-12.74,-60.15,67.39,98,100,4.76,light rain,1.0,0.0
390,Markova,UA,2020-02-22 21:51:26,48.68,24.41,30.2,76,100,16.22,overcast clouds,0.0,0.0
391,Helong,CN,2020-02-22 21:51:27,42.54,129.0,9.28,82,2,6.8,clear sky,0.0,0.0
392,Sorong,ID,2020-02-22 21:46:53,-0.88,131.25,75.16,97,97,5.73,moderate rain,3.69,0.0
393,Baghmara,IN,2020-02-22 21:51:27,23.8,86.21,66.67,49,32,2.13,scattered clouds,0.0,0.0
394,Plouzane,FR,2020-02-22 21:49:17,48.38,-4.62,51.8,100,90,19.46,light intensity drizzle,0.0,0.0
395,Fereydunshahr,IR,2020-02-22 21:51:28,32.94,50.12,19.65,73,0,5.79,clear sky,0.0,0.0
396,Boguchany,RU,2020-02-22 21:46:44,58.38,97.45,7.12,97,1,2.91,clear sky,0.0,0.0
397,High Level,CA,2020-02-22 21:43:56,58.52,-117.14,37.4,37,40,11.41,scattered clouds,0.0,0.0
398,Champerico,GT,2020-02-22 21:47:32,14.3,-91.92,91.4,52,75,11.41,broken clouds,0.0,0.0
399,Hofn,IS,2020-02-22 21:47:05,64.25,-15.21,34.3,67,100,9.62,overcast clouds,0.0,0.0
400,Prieska,ZA,2020-02-22 21:51:29,-29.66,22.75,76.33,28,0,22.57,clear sky,0.0,0.0
401,Igarka,RU,2020-02-22 21:51:29,67.47,86.58,5.23,88,100,13.76,overcast clouds,0.0,0.0
402,Karratha,AU,2020-02-22 21:51:29,-20.74,116.85,81.27,74,0,13.18,clear sky,0.0,0.0
403,Halifax,CA,2020-02-22 21:49:35,44.65,-63.57,37.0,59,40,12.75,scattered clouds,0.0,0.0
404,Sambava,MG,2020-02-22 21:48:36,-14.27,50.17,74.95,82,100,1.99,overcast clouds,0.0,0.0
405,Bardiyah,LY,2020-02-22 21:45:06,31.76,25.09,56.73,70,54,14.92,light rain,0.88,0.0
406,Martapura,ID,2020-02-22 21:51:30,-3.42,114.85,77.0,100,20,1.12,few clouds,0.0,0.0
407,Chauk,MM,2020-02-22 21:51:30,20.88,94.82,70.93,45,0,2.82,clear sky,0.0,0.0
408,Sawtell,AU,2020-02-22 21:51:30,-30.38,153.1,68.0,94,100,4.7,light rain,0.38,0.0
409,Natal,BR,2020-02-22 21:39:46,-5.79,-35.21,82.4,83,75,8.05,broken clouds,0.0,0.0
410,Marawi,PH,2020-02-22 21:45:02,8.0,124.29,71.01,89,26,5.99,scattered clouds,0.0,0.0
411,Esmeraldas,BR,2020-02-22 21:44:47,-19.76,-44.31,84.2,51,40,6.93,scattered clouds,0.0,0.0
412,Orotukan,RU,2020-02-22 21:51:31,62.27,151.7,-17.59,81,100,1.99,overcast clouds,0.0,0.0
413,Iquique,CL,2020-02-22 21:51:31,-20.22,-70.14,77.0,61,19,18.34,few clouds,0.0,0.0
414,Barletta,IT,2020-02-22 21:51:31,41.31,16.29,43.0,61,0,8.05,clear sky,0.0,0.0
415,Pacific Grove,US,2020-02-22 21:45:05,36.62,-121.92,64.99,76,90,11.41,overcast clouds,0.0,0.0
416,Vieste,IT,2020-02-22 21:51:31,41.88,16.18,45.0,100,5,9.17,clear sky,0.0,0.0
417,Zhuhai,CN,2020-02-22 21:51:32,22.28,113.57,66.0,82,20,14.99,few clouds,0.0,0.0
418,Guerrero Negro,MX,2020-02-22 21:42:01,27.98,-114.06,63.82,63,100,14.65,overcast clouds,0.0,0.0
419,Shakhtinsk,KZ,2020-02-22 21:51:32,49.71,72.59,19.4,85,90,6.71,light snow,0.0,0.0
420,Maarianhamina,AX,2020-02-22 21:51:32,60.1,19.93,41.0,65,100,13.87,overcast clouds,0.0,0.0
421,Palaikastron,GR,2020-02-22 21:51:32,35.2,26.25,52.0,65,65,17.0,broken clouds,0.0,0.0
422,Doha,QA,2020-02-22 21:45:01,25.29,51.53,69.01,93,0,3.36,clear sky,0.0,0.0
423,Harindanga,IN,2020-02-22 21:51:33,22.04,88.32,68.0,82,0,5.82,mist,0.0,0.0
424,Carlagan,PH,2020-02-22 21:51:33,14.97,122.05,75.07,85,99,23.35,light rain,1.5,0.0
425,Vestmannaeyjar,IS,2020-02-22 21:44:18,63.44,-20.27,34.2,60,100,5.57,overcast clouds,0.0,0.0
426,Caravelas,BR,2020-02-22 21:47:19,-17.71,-39.25,81.5,84,94,15.95,overcast clouds,0.0,0.0
427,Malatya,TR,2020-02-22 21:51:34,38.5,38.0,42.8,93,90,2.8,light rain,0.0,0.0
428,Naldurg,IN,2020-02-22 21:51:34,17.82,76.3,72.48,39,0,8.55,clear sky,0.0,0.0
429,Aripuana,BR,2020-02-22 21:51:34,-9.17,-60.63,80.94,80,100,1.61,light rain,0.69,0.0
430,Klaksvik,FO,2020-02-22 21:51:34,62.23,-6.59,35.6,69,96,9.17,overcast clouds,0.0,0.0
431,Vaitape,PF,2020-02-22 21:48:28,-16.52,-151.75,82.04,74,49,9.24,light rain,0.63,0.0
432,Novopokrovka,UA,2020-02-22 21:51:34,49.84,36.55,33.8,98,90,2.24,mist,0.0,0.0
433,Hongjiang,CN,2020-02-22 21:51:35,27.11,110.0,49.6,95,100,1.99,overcast clouds,0.0,0.0
434,Acajutla,SV,2020-02-22 21:51:35,13.59,-89.83,87.8,38,20,12.75,few clouds,0.0,0.0
435,Hue,VN,2020-02-22 21:51:35,16.47,107.6,68.0,94,75,2.24,light rain,0.0,0.0
436,Ginda,IN,2020-02-22 21:51:35,30.69,78.49,43.45,65,0,4.72,clear sky,0.0,0.0
437,Esperance,AU,2020-02-22 21:49:05,-33.87,121.9,64.4,88,83,4.7,broken clouds,0.0,0.0
438,Mantua,IT,2020-02-22 21:51:36,45.17,10.78,46.99,65,67,2.24,broken clouds,0.0,0.0
439,Matara,LK,2020-02-22 21:43:56,5.95,80.54,78.35,73,100,10.22,overcast clouds,0.0,0.0
440,Kendari,ID,2020-02-22 21:45:05,-3.94,122.5,74.95,93,98,1.52,overcast clouds,0.0,0.0
441,Riyadh,SA,2020-02-22 21:49:11,24.69,46.72,68.0,34,0,10.29,clear sky,0.0,0.0
442,Saint-Pierre,RE,2020-02-22 21:47:34,-21.34,55.48,75.2,69,75,6.93,broken clouds,0.0,0.0
443,Haines Junction,CA,2020-02-22 21:44:55,60.75,-137.51,12.29,93,99,6.06,light snow,0.0,0.31
444,Kuching,MY,2020-02-22 21:47:50,1.55,110.33,75.2,94,40,3.29,moderate rain,0.0,0.0
445,Lerwick,GB,2020-02-22 21:51:37,60.15,-1.15,41.0,86,76,20.8,moderate rain,0.0,0.0
446,Sechura,PE,2020-02-22 21:46:50,-5.56,-80.82,74.28,88,33,14.97,scattered clouds,0.0,0.0
447,Chingirlau,KZ,2020-02-22 21:47:00,51.09,54.08,17.15,91,100,5.7,overcast clouds,0.0,0.0
448,Alamosa,US,2020-02-22 21:51:38,37.47,-105.87,51.8,39,1,9.17,clear sky,0.0,0.0
449,Isla Vista,US,2020-02-22 21:51:20,34.41,-119.86,63.0,55,90,10.29,light rain,0.0,0.0
450,Valle De Allende,MX,2020-02-22 21:51:38,26.93,-105.4,81.27,17,100,10.94,overcast clouds,0.0,0.0
451,Faanui,PF,2020-02-22 21:48:28,-16.48,-151.75,82.04,74,49,9.24,light rain,0.63,0.0
452,Dengzhou,CN,2020-02-22 21:51:38,37.81,120.75,39.09,49,0,12.01,clear sky,0.0,0.0
453,Guarapari,BR,2020-02-22 21:51:39,-20.67,-40.5,78.8,88,90,6.93,overcast clouds,0.0,0.0
454,Mahajanga,MG,2020-02-22 21:51:39,-15.72,46.32,77.0,94,40,3.36,scattered clouds,0.0,0.0
455,Beaverlodge,CA,2020-02-22 21:51:39,55.22,-119.44,33.8,50,20,16.11,few clouds,0.0,0.0
456,Kisangani,CD,2020-02-22 21:51:39,0.52,25.2,81.07,48,100,1.59,overcast clouds,0.0,0.0
457,Makat,KZ,2020-02-22 21:51:39,47.65,53.35,29.3,84,0,9.44,clear sky,0.0,0.0
458,Kloulklubed,PW,2020-02-22 21:42:11,7.04,134.26,80.6,78,90,10.29,overcast clouds,0.0,0.0
459,Garden City,US,2020-02-22 21:51:40,42.33,-83.33,48.2,42,1,9.17,clear sky,0.0,0.0
460,Snezhnogorsk,RU,2020-02-22 21:44:26,69.19,33.25,33.8,80,75,2.24,shower sleet,0.0,0.0
461,Itupiranga,BR,2020-02-22 21:47:49,-5.13,-49.33,84.2,83,20,2.24,few clouds,0.0,0.0
462,Luanda,AO,2020-02-22 21:51:38,-8.84,13.23,82.4,83,75,8.05,broken clouds,0.0,0.0
463,Visakhapatnam,IN,2020-02-22 21:47:13,17.69,83.21,68.0,94,20,2.24,mist,0.0,0.0
464,Berdigestyakh,RU,2020-02-22 21:47:49,62.1,126.7,-3.12,98,100,4.29,overcast clouds,0.0,0.0
465,Mananara,MG,2020-02-22 21:51:41,-16.17,49.77,81.41,76,100,4.21,light rain,2.06,0.0
466,Talcahuano,CL,2020-02-22 21:51:41,-36.72,-73.12,68.0,60,20,10.29,few clouds,0.0,0.0
467,Kruisfontein,ZA,2020-02-22 21:51:41,-34.0,24.73,63.36,84,100,16.15,light rain,1.69,0.0
468,Goderich,CA,2020-02-22 21:44:30,43.75,-81.72,39.0,73,0,11.01,clear sky,0.0,0.0
469,Dingle,PH,2020-02-22 21:47:17,11.0,122.67,70.03,90,0,11.03,clear sky,0.0,0.0
470,Yaan,NG,2020-02-22 21:44:40,7.38,8.57,86.4,14,0,2.59,clear sky,0.0,0.0
471,Sarangani,PH,2020-02-22 21:45:15,5.4,125.46,80.56,76,58,20.15,broken clouds,0.0,0.0
472,Lazaro Cardenas,MX,2020-02-22 21:43:39,17.96,-102.2,85.08,54,0,9.15,clear sky,0.0,0.0
473,Sao Jose Do Egito,BR,2020-02-22 21:51:42,-7.48,-37.27,77.88,68,86,4.81,overcast clouds,0.0,0.0
474,Comodoro Rivadavia,AR,2020-02-22 21:44:15,-45.87,-67.5,78.8,29,26,20.8,scattered clouds,0.0,0.0
475,Shingu,JP,2020-02-22 21:41:35,33.73,135.98,49.55,62,0,20.4,clear sky,0.0,0.0
476,Patiya,BD,2020-02-22 21:51:43,22.29,91.98,60.42,58,0,1.86,clear sky,0.0,0.0
477,Sao Filipe,CV,2020-02-22 21:51:43,14.9,-24.5,67.42,82,84,20.85,broken clouds,0.0,0.0
478,Carauari,BR,2020-02-22 21:50:10,-4.88,-66.9,80.94,80,91,2.8,light rain,0.94,0.0
479,Howard Springs,AU,2020-02-22 21:51:44,-12.5,131.05,86.0,83,90,10.29,overcast clouds,0.0,0.0
480,Sorland,NO,2020-02-22 21:47:26,67.67,12.69,40.95,77,96,19.48,light rain,0.75,0.0
481,Gornopravdinsk,RU,2020-02-22 21:51:44,60.05,69.9,6.3,96,17,5.99,few clouds,0.0,0.0
482,Japura,ID,2020-02-22 21:47:13,-0.32,102.35,72.45,98,75,1.79,broken clouds,0.0,0.0
483,Lac Du Bonnet,CA,2020-02-22 21:51:45,50.25,-96.06,32.18,95,66,4.16,broken clouds,0.0,0.0
484,Thinadhoo,MV,2020-02-22 21:51:45,0.53,72.93,82.49,80,100,14.65,overcast clouds,0.0,0.0
485,Puerto Colombia,CO,2020-02-22 21:51:45,10.99,-74.95,82.4,65,40,13.87,scattered clouds,0.0,0.0
486,Havelock,US,2020-02-22 21:51:45,34.88,-76.9,53.6,25,1,3.36,clear sky,0.0,0.0
487,Nampula,MZ,2020-02-22 21:47:02,-15.12,39.27,73.4,94,75,4.7,broken clouds,0.0,0.0
488,Sisimiut,GL,2020-02-22 21:44:26,66.94,-53.67,-3.98,81,100,5.12,overcast clouds,0.0,0.0
489,Diamantino,BR,2020-02-22 21:51:46,-14.41,-56.45,74.01,95,100,7.72,moderate rain,5.25,0.0
490,Mehamn,NO,2020-02-22 21:51:46,71.04,27.85,29.44,80,55,19.22,broken clouds,0.0,0.0
491,Atbasar,KZ,2020-02-22 21:51:46,51.8,68.33,16.14,95,84,4.94,broken clouds,0.0,0.0
492,Sohna,IN,2020-02-22 21:51:46,28.25,77.07,60.8,93,20,4.27,mist,0.0,0.0
493,Petatlan,MX,2020-02-22 21:51:46,17.52,-101.27,87.8,66,5,10.29,clear sky,0.0,0.0
494,Nyurba,RU,2020-02-22 21:43:55,63.28,118.33,-6.21,98,100,1.48,overcast clouds,0.0,0.0
495,Deputatskiy,RU,2020-02-22 21:47:56,69.3,139.9,-12.66,100,93,0.58,overcast clouds,0.0,0.0
496,Zaporizhzhya,UA,2020-02-22 21:51:47,47.82,35.18,36.0,93,75,4.47,broken clouds,0.0,0.0
497,Rach Gia,VN,2020-02-22 21:51:47,10.02,105.08,77.0,73,32,5.82,scattered clouds,0.0,0.0
498,Taoudenni,ML,2020-02-22 21:47:06,22.68,-3.98,78.84,10,2,10.58,clear sky,0.0,0.0
499,Ribeira Grande,PT,2020-02-22 21:47:19,38.52,-28.7,59.0,72,75,4.7,broken clouds,0.0,0.0
500,Camocim,BR,2020-02-22 21:51:48,-2.9,-40.84,74.05,98,100,3.89,moderate rain,3.81,0.0
501,Chik,RU,2020-02-22 21:51:48,54.99,82.43,23.0,85,90,4.47,overcast clouds,0.0,0.0
502,Marsh Harbour,BS,2020-02-22 21:43:59,26.54,-77.06,68.83,69,0,24.11,light rain,0.19,0.0
503,West Bay,KY,2020-02-22 21:51:48,19.37,-81.42,78.8,69,75,12.75,broken clouds,0.0,0.0
504,Beswan,IN,2020-02-22 21:51:48,27.65,77.88,59.67,80,0,4.41,clear sky,0.0,0.0
505,Fortuna Foothills,US,2020-02-22 21:48:44,32.66,-114.41,72.0,35,1,12.75,clear sky,0.0,0.0
506,Sirsi,IN,2020-02-22 21:51:49,14.62,74.85,67.64,39,0,7.67,clear sky,0.0,0.0
507,Popondetta,PG,2020-02-22 21:51:49,-8.75,148.25,74.8,90,85,2.33,overcast clouds,0.0,0.0
508,Bilibino,RU,2020-02-22 21:44:13,68.05,166.44,-24.41,99,100,2.44,overcast clouds,0.0,0.0
509,Ust-Kulom,RU,2020-02-22 21:51:49,61.69,53.69,31.75,88,100,14.74,overcast clouds,0.0,0.0
510,Lucea,JM,2020-02-22 21:45:02,18.45,-78.17,82.4,65,20,14.99,few clouds,0.0,0.0
511,Santa Rosa,PH,2020-02-22 21:45:06,14.31,121.11,77.0,69,40,1.12,scattered clouds,0.0,0.0
512,Alegrete,BR,2020-02-22 21:51:50,-29.78,-55.79,73.47,39,0,11.07,clear sky,0.0,0.0
513,Kushmurun,KZ,2020-02-22 21:43:49,52.45,64.63,19.76,96,85,3.6,light snow,0.0,0.13
514,Kifri,IQ,2020-02-22 21:51:50,34.7,44.97,60.58,45,96,12.59,overcast clouds,0.0,0.0
515,Sosnovo-Ozerskoye,RU,2020-02-22 21:47:21,52.52,111.54,4.98,96,100,6.82,overcast clouds,0.0,0.0
516,Paita,PE,2020-02-22 21:47:46,-5.09,-81.11,62.6,100,40,10.29,scattered clouds,0.0,0.0
517,Cividale Del Friuli,IT,2020-02-22 21:51:51,46.09,13.43,46.0,93,100,1.12,overcast clouds,0.0,0.0
518,Itarema,BR,2020-02-22 21:44:10,-2.92,-39.92,74.1,96,100,6.11,light rain,0.81,0.0
519,Sibolga,ID,2020-02-22 21:51:51,1.74,98.78,70.72,89,0,3.42,clear sky,0.0,0.0
520,Khed,IN,2020-02-22 21:51:51,17.72,73.38,70.79,54,0,1.54,clear sky,0.0,0.0
521,Gwadar,PK,2020-02-22 21:47:50,25.12,62.33,72.66,76,0,1.54,clear sky,0.0,0.0
522,Concepcion Del Uruguay,AR,2020-02-22 21:51:52,-32.48,-58.24,73.99,53,0,1.99,clear sky,0.0,0.0
523,La Tuque,CA,2020-02-22 21:49:18,47.43,-72.78,30.72,85,100,9.51,light snow,0.0,0.13
524,La Paz,BO,2020-02-22 21:50:02,-16.5,-68.15,55.4,66,75,11.41,broken clouds,0.0,0.0
525,Itoman,JP,2020-02-22 21:45:06,26.12,127.67,62.6,63,20,11.41,few clouds,0.0,0.0
526,Northam,GB,2020-02-22 21:51:52,51.03,-4.22,50.0,76,20,12.75,few clouds,0.0,0.0
527,Fort Nelson,CA,2020-02-22 21:44:36,58.81,-122.7,37.4,25,40,18.34,scattered clouds,0.0,0.0
528,Shillong,IN,2020-02-22 21:51:53,25.57,91.88,64.4,93,75,0.6,mist,0.0,0.0
529,Lensk,RU,2020-02-22 21:51:53,60.73,114.93,13.48,96,100,3.27,light snow,0.0,0.13
530,Havoysund,NO,2020-02-22 21:44:57,71.0,24.66,32.0,70,84,13.87,broken clouds,0.0,0.0
531,Faya,SA,2020-02-22 21:51:54,18.39,42.45,62.6,33,41,11.41,scattered clouds,0.0,0.0
532,Cravo Norte,CO,2020-02-22 21:51:54,6.3,-70.2,97.93,29,94,8.34,overcast clouds,0.0,0.0
533,Luganville,VU,2020-02-22 21:51:54,-15.53,167.17,82.4,78,40,1.12,scattered clouds,0.0,0.0
