City_ID,City,Country,Date,Lat,Lng,Max Temp,Humidity,Cloudiness,Wind Speed
0,Barrow,US,2020-02-22 21:26:24,71.29,-156.79,-11.2,76,90,5.82
1,Murray Bridge,AU,2020-02-22 21:27:39,-35.12,139.27,71.01,98,0,1.01
2,Neiafu,TO,2020-02-22 21:23:40,-18.65,-173.98,80.6,94,75,7.99
3,Rikitea,PF,2020-02-22 21:31:40,-23.12,-134.97,78.94,70,1,7.52
4,Leningradskiy,RU,2020-02-22 21:23:39,69.38,178.42,-12.59,95,100,9.93
5,Khatanga,RU,2020-02-22 21:26:12,71.97,102.5,6.87,83,100,14.27
6,Bredasdorp,ZA,2020-02-22 21:26:12,-34.53,20.04,64.4,68,93,6.93
7,Gamba,GA,2020-02-22 21:33:21,-2.65,10.0,79.56,88,100,3.56
8,Ushuaia,AR,2020-02-22 21:23:41,-54.8,-68.3,69.8,52,75,9.17
9,Chegdomyn,RU,2020-02-22 21:33:22,51.12,133.02,-11.92,100,19,0.6
10,Yellowknife,CA,2020-02-22 21:26:37,62.46,-114.35,5.0,60,20,6.93
11,Bengkulu,ID,2020-02-22 21:27:22,-3.8,102.27,73.42,89,2,4.56
12,Mataura,NZ,2020-02-22 21:26:23,-46.19,168.86,59.0,79,70,17.0
13,Pisco,PE,2020-02-22 21:24:53,-13.7,-76.22,77.0,30,20,11.41
14,Necochea,AR,2020-02-22 21:27:19,-38.55,-58.74,68.0,72,0,7.0
15,Tartus,SY,2020-02-22 21:33:23,34.89,35.89,54.0,87,40,9.17
16,College,US,2020-02-22 21:33:03,64.86,-147.8,10.99,84,90,10.29
17,Sabha,LY,2020-02-22 21:33:23,27.04,14.43,56.98,38,0,9.86
18,Makueni,KE,2020-02-22 21:33:23,-1.8,37.62,67.08,86,31,2.28
19,Georgetown,MY,2020-02-22 21:26:26,5.41,100.34,80.6,78,20,2.24
20,Puksoozero,RU,2020-02-22 21:33:23,62.59,40.61,31.46,91,100,19.48
21,Hermanus,ZA,2020-02-22 21:26:29,-34.42,19.23,66.99,91,89,1.01
22,Chuy,UY,2020-02-22 21:26:40,-33.7,-53.46,67.87,62,31,11.77
23,Honiara,SB,2020-02-22 21:32:50,-9.43,159.95,80.6,83,20,4.7
24,Mar Del Plata,AR,2020-02-22 21:23:39,-38.0,-57.56,62.6,67,0,13.87
25,Arraial Do Cabo,BR,2020-02-22 21:26:24,-22.97,-42.03,77.0,88,75,13.87
26,Albany,US,2020-02-22 21:30:21,42.6,-73.97,43.0,44,1,13.87
27,Ponta Do Sol,PT,2020-02-22 21:26:15,32.67,-17.1,70.0,77,20,21.92
28,Pichayevo,RU,2020-02-22 21:33:12,53.24,42.2,28.58,93,100,10.27
29,Olovyannaya,RU,2020-02-22 21:33:25,50.95,115.57,9.05,96,100,4.0
30,Zhigansk,RU,2020-02-22 21:26:59,66.77,123.37,-10.16,96,100,7.16
31,East London,ZA,2020-02-22 21:26:27,-33.02,27.91,72.21,81,100,22.64
32,Hamilton,US,2020-02-22 21:26:55,39.18,-84.53,51.01,21,1,8.05
33,Teguldet,RU,2020-02-22 21:33:26,57.31,88.17,17.85,97,67,2.68
34,Riohacha,CO,2020-02-22 21:31:44,11.54,-72.91,82.4,74,20,16.11
35,Samarai,PG,2020-02-22 21:32:22,-10.62,150.67,79.27,86,87,3.29
36,Upernavik,GL,2020-02-22 21:23:51,72.79,-56.15,-15.9,94,78,4.88
37,Port Lincoln,AU,2020-02-22 21:27:45,-34.73,135.87,64.6,82,0,6.15
38,Pevek,RU,2020-02-22 21:27:18,69.7,170.31,-12.15,98,100,10.78
39,Sinor,IN,2020-02-22 21:33:27,21.92,73.33,67.1,24,0,4.97
40,Thompson,CA,2020-02-22 21:23:18,55.74,-97.86,26.6,49,20,2.24
41,Kawalu,ID,2020-02-22 21:33:28,-7.38,108.21,71.04,93,40,3.04
42,Severo-Kurilsk,RU,2020-02-22 21:31:41,50.68,156.12,7.7,89,31,0.74
43,Pafos,CY,2020-02-22 21:33:28,34.77,32.42,57.2,58,75,9.17
44,Bluff,NZ,2020-02-22 21:23:23,-46.6,168.33,59.0,79,68,17.0
45,Nelson Bay,AU,2020-02-22 21:26:30,-32.72,152.15,73.99,82,100,1.81
46,Semey,KZ,2020-02-22 21:33:29,50.41,80.23,25.9,95,100,11.63
47,Alekseyevka,RU,2020-02-22 21:33:29,50.63,38.69,31.69,98,100,4.29
48,Esperance,AU,2020-02-22 21:26:36,-33.87,121.9,64.4,88,83,4.7
49,Chapais,CA,2020-02-22 21:27:21,49.78,-74.85,33.8,55,75,10.29
50,Henties Bay,NA,2020-02-22 21:32:48,-22.12,14.28,64.99,87,0,1.01
51,Provideniya,RU,2020-02-22 21:26:14,64.38,-173.3,-14.6,87,18,2.73
52,Taldan,RU,2020-02-22 21:33:30,53.67,124.8,-1.46,97,98,1.39
53,Talnakh,RU,2020-02-22 21:26:28,69.49,88.4,8.6,84,100,24.61
54,Fairbanks,US,2020-02-22 21:26:19,64.84,-147.72,12.0,84,90,10.29
55,Nome,US,2020-02-22 21:24:17,64.5,-165.41,-16.6,82,1,3.24
56,Lazaro Cardenas,MX,2020-02-22 21:27:52,17.96,-102.2,85.08,54,0,9.15
57,Baoqing,CN,2020-02-22 21:33:31,46.33,132.21,10.04,76,0,15.43
58,Sobolevo,RU,2020-02-22 21:27:44,54.43,31.9,33.35,95,100,26.19
59,Ancud,CL,2020-02-22 21:26:28,-41.87,-73.82,80.6,28,0,5.82
60,Mandera,KE,2020-02-22 21:33:31,3.94,41.87,75.99,18,14,1.01
61,Bambous Virieux,MU,2020-02-22 21:25:13,-20.34,57.76,77.0,88,75,3.36
62,Yondo,CO,2020-02-22 21:33:32,7.01,-73.91,91.4,52,40,4.7
63,Yulara,AU,2020-02-22 21:32:56,-25.24,130.99,68.0,24,0,9.17
64,Mount Gambier,AU,2020-02-22 21:26:51,-37.83,140.77,50.0,100,3,3.33
65,The Valley,AI,2020-02-22 21:33:32,18.22,-63.06,82.4,65,20,2.24
66,Butaritari,KI,2020-02-22 21:26:24,3.07,172.79,83.89,75,94,6.55
67,Kapaa,US,2020-02-22 21:26:26,22.08,-159.32,78.8,65,20,6.93
68,Hovd,MN,2020-02-22 21:21:33,48.01,91.64,17.78,64,100,2.91
69,Clyde River,CA,2020-02-22 21:26:24,70.47,-68.59,-27.4,74,1,4.7
70,Srivardhan,IN,2020-02-22 21:33:33,18.03,73.02,75.9,49,0,4.5
71,La Ronge,CA,2020-02-22 21:26:54,55.1,-105.28,39.2,51,90,8.05
72,Muroto,JP,2020-02-22 21:33:33,33.28,134.15,37.4,74,20,8.05
73,Aasiaat,GL,2020-02-22 21:33:33,68.71,-52.87,-3.93,92,100,3.71
74,Avarua,CK,2020-02-22 21:26:03,-21.21,-159.78,80.6,78,69,8.05
75,Turki,RU,2020-02-22 21:33:34,51.99,43.27,23.11,95,100,7.16
76,Ribeira Grande,PT,2020-02-22 21:27:13,38.52,-28.7,59.0,72,75,4.7
77,Mgandu,TZ,2020-02-22 21:33:34,-5.95,34.13,64.53,94,100,4.5
78,Kerema,PG,2020-02-22 21:33:34,-7.96,145.78,76.46,86,20,1.43
79,Minab,IR,2020-02-22 21:33:35,27.15,57.08,69.8,77,40,4.7
80,Lompoc,US,2020-02-22 21:24:18,34.64,-120.46,64.0,59,20,14.99
81,Carnarvon,AU,2020-02-22 21:26:32,-24.87,113.63,75.2,83,40,5.82
82,Busselton,AU,2020-02-22 21:23:39,-33.65,115.33,66.99,68,5,10.8
83,Kieta,PG,2020-02-22 21:33:35,-6.22,155.63,81.21,75,36,4.76
84,Ugep,NG,2020-02-22 21:33:35,5.81,8.08,85.37,41,28,10.67
85,Ambanja,MG,2020-02-22 21:33:36,-13.68,48.45,77.85,87,69,3.11
86,Puerto Del Rosario,ES,2020-02-22 21:33:36,28.5,-13.86,71.6,68,24,17.22
87,Auki,SB,2020-02-22 21:33:07,-8.77,160.7,82.92,77,6,4.14
88,Veraval,IN,2020-02-22 21:27:03,20.9,70.37,69.06,27,0,8.86
89,Hasaki,JP,2020-02-22 21:26:32,35.73,140.83,46.4,42,20,4.7
90,Vaini,TO,2020-02-22 21:26:25,-21.2,-175.2,82.4,88,75,9.17
91,Lisakovsk,KZ,2020-02-22 21:33:37,52.54,62.49,16.93,95,94,5.37
92,New Norfolk,AU,2020-02-22 21:27:46,-42.78,147.06,53.6,76,20,6.93
93,Luderitz,NA,2020-02-22 21:32:33,-26.65,15.16,66.2,77,0,19.46
94,Zaysan,KZ,2020-02-22 21:33:37,47.47,84.87,30.85,90,100,4.59
95,Punta Arenas,CL,2020-02-22 21:23:31,-53.15,-70.92,69.8,46,100,25.28
96,Srednekolymsk,RU,2020-02-22 21:33:20,67.45,153.68,-27.51,100,95,1.21
97,Mineros,BO,2020-02-22 21:27:49,-17.12,-63.23,80.6,44,40,17.22
98,Atuona,PF,2020-02-22 21:31:40,-9.8,-139.03,81.86,76,0,13.73
99,Faanui,PF,2020-02-22 21:23:34,-16.48,-151.75,82.04,74,49,9.24
100,Broken Hill,AU,2020-02-22 21:33:38,-31.95,141.43,64.4,27,0,3.36
101,Bethel,US,2020-02-22 21:24:01,41.37,-73.41,50.0,20,1,8.05
102,Deputatskiy,RU,2020-02-22 21:24:56,69.3,139.9,-12.66,100,93,0.58
103,Abu Samrah,SY,2020-02-22 21:27:19,35.3,37.18,48.97,84,100,5.3
104,Port Hardy,CA,2020-02-22 21:23:40,50.7,-127.42,42.8,87,40,11.41
105,Puerto Ayora,EC,2020-02-22 21:26:25,-0.74,-90.35,82.4,78,40,9.17
106,Daru,PG,2020-02-22 21:33:27,-9.08,143.21,77.0,87,91,8.01
107,San Patricio,MX,2020-02-22 21:26:37,19.22,-104.7,82.4,74,20,11.41
108,Banda Aceh,ID,2020-02-22 21:33:06,5.56,95.32,72.75,91,0,4.41
109,Kushmurun,KZ,2020-02-22 21:33:40,52.45,64.63,19.76,96,85,3.6
110,Qaanaaq,GL,2020-02-22 21:26:41,77.48,-69.36,-14.08,64,99,4.52
111,Victor Harbor,AU,2020-02-22 21:27:16,-35.57,138.62,71.01,62,0,3.36
112,Praya,CV,2020-02-22 21:31:15,14.92,-23.51,69.8,73,75,20.8
113,Hobart,AU,2020-02-22 21:26:23,-42.88,147.33,53.6,76,20,6.93
114,San Quintin,MX,2020-02-22 21:27:04,30.48,-115.95,61.34,67,18,13.71
115,Kodiak,US,2020-02-22 21:31:40,57.79,-152.41,21.2,53,1,10.29
116,Mae Ramat,TH,2020-02-22 21:33:41,16.98,98.52,62.55,64,0,1.01
117,Great Yarmouth,GB,2020-02-22 21:33:42,52.61,1.73,48.99,75,100,13.87
118,Biak,ID,2020-02-22 21:26:34,-0.91,122.88,81.88,77,37,12.53
119,Jumla,NP,2020-02-22 21:33:42,29.27,82.18,30.7,70,99,3.78
120,Hithadhoo,MV,2020-02-22 21:26:34,-0.6,73.08,82.15,81,89,14.03
121,Castro,BR,2020-02-22 21:27:03,-24.79,-50.01,70.52,75,34,5.53
122,Portel,BR,2020-02-22 21:27:25,-1.94,-50.82,78.76,96,68,2.73
123,Turukhansk,RU,2020-02-22 21:32:57,65.82,87.98,4.78,97,100,6.11
124,Jamestown,US,2020-02-22 21:26:07,42.1,-79.24,42.8,44,1,18.34
125,Kimparana,ML,2020-02-22 21:33:43,12.83,-4.92,84.0,9,0,9.95
126,Tuktoyaktuk,CA,2020-02-22 21:26:34,69.45,-133.04,3.2,84,90,6.93
127,Mokokchung,IN,2020-02-22 21:33:43,26.33,94.53,60.75,76,64,2.64
128,Torbay,CA,2020-02-22 21:27:06,47.67,-52.73,24.01,67,20,20.8
129,Kulunda,RU,2020-02-22 21:33:44,52.57,78.94,13.89,96,86,7.81
130,Moose Factory,CA,2020-02-22 21:33:44,51.26,-80.61,39.2,48,90,8.05
131,Namuac,PH,2020-02-22 21:33:44,18.61,121.17,63.32,95,35,6.49
132,Lagoa,PT,2020-02-22 21:27:06,39.05,-27.98,59.61,81,0,10.2
133,Dikson,RU,2020-02-22 21:23:27,73.51,80.55,16.52,93,100,25.37
134,Lebu,CL,2020-02-22 21:26:30,-37.62,-73.65,66.42,62,15,5.06
135,Ilhabela,BR,2020-02-22 21:27:54,-23.78,-45.36,74.1,75,100,13.4
136,Port Alfred,ZA,2020-02-22 21:26:38,-33.59,26.89,63.0,96,100,4.0
137,Hilo,US,2020-02-22 21:24:05,19.73,-155.09,80.6,54,20,6.93
138,San Nicolas,PH,2020-02-22 21:33:45,18.17,120.6,60.8,87,20,2.24
139,Sao Joao Da Barra,BR,2020-02-22 21:23:53,-21.64,-41.05,75.2,78,75,20.8
140,Taybad,IR,2020-02-22 21:33:46,34.74,60.78,50.77,68,57,3.71
141,Te Anau,NZ,2020-02-22 21:26:41,-45.42,167.72,51.8,74,60,2.51
142,Bukavu,CD,2020-02-22 21:33:46,-2.51,28.86,61.5,93,96,0.25
143,Remontnoye,RU,2020-02-22 21:33:46,46.56,43.65,30.2,92,100,8.95
144,Nyurba,RU,2020-02-22 21:27:56,63.28,118.33,-6.21,98,100,1.48
145,Parry Sound,CA,2020-02-22 21:33:46,45.35,-80.03,36.0,62,96,10.67
146,High Level,CA,2020-02-22 21:33:10,58.52,-117.14,37.4,37,40,11.41
147,Yuanping,CN,2020-02-22 21:33:47,38.72,112.76,29.7,34,0,1.74
148,Matara,LK,2020-02-22 21:33:21,5.95,80.54,78.35,73,100,10.22
149,Lat Yao,TH,2020-02-22 21:33:47,15.75,99.79,70.52,54,0,1.68
150,Mirabad,AF,2020-02-22 21:33:47,30.44,61.84,63.9,38,26,3.31
151,Avera,US,2020-02-22 21:26:19,33.19,-82.53,57.0,30,1,1.21
152,Kahului,US,2020-02-22 21:32:48,20.89,-156.47,80.6,51,40,6.93
153,Iqaluit,CA,2020-02-22 21:31:39,63.75,-68.51,-27.0,60,20,13.87
154,Viedma,AR,2020-02-22 21:27:41,-40.81,-63.0,78.15,26,0,1.1
155,Portree,GB,2020-02-22 21:33:48,57.41,-6.19,43.0,82,77,20.0
156,Lorengau,PG,2020-02-22 21:27:24,-2.02,147.27,82.4,75,52,7.67
157,Grand Gaube,MU,2020-02-22 21:23:51,-20.01,57.66,77.0,88,75,3.36
158,Wiang Sa,TH,2020-02-22 21:33:49,8.64,99.37,70.11,92,0,3.18
159,Inhambane,MZ,2020-02-22 21:30:18,-23.86,35.38,81.41,78,0,6.17
160,Souillac,MU,2020-02-22 21:23:40,-20.52,57.52,77.0,88,75,3.36
161,Marsh Harbour,BS,2020-02-22 21:33:49,26.54,-77.06,68.83,69,0,24.11
162,Pokhara,NP,2020-02-22 21:31:08,28.23,83.98,53.58,68,0,3.36
163,Benguela,AO,2020-02-22 21:33:31,-12.58,13.41,80.4,76,100,4.12
164,Fortuna,US,2020-02-22 21:26:50,40.6,-124.16,61.0,81,90,6.93
165,Okhotsk,RU,2020-02-22 21:26:27,59.38,143.3,-12.35,100,87,3.8
166,Bonthe,SL,2020-02-22 21:33:50,7.53,-12.51,81.18,84,62,7.2
167,Chervona Sloboda,UA,2020-02-22 21:33:50,49.38,32.15,34.84,75,99,11.36
168,Constitucion,CL,2020-02-22 21:26:23,-35.33,-72.42,62.53,72,0,6.11
169,Gerash,IR,2020-02-22 21:33:51,27.67,54.14,50.0,87,0,1.19
170,Posse,BR,2020-02-22 21:33:51,-14.09,-46.37,78.78,75,38,1.68
171,Husavik,IS,2020-02-22 21:27:08,66.04,-17.34,21.94,87,100,10.38
172,Quelimane,MZ,2020-02-22 21:33:51,-17.88,36.89,78.57,78,58,3.6
173,Batagay-Alyta,RU,2020-02-22 21:24:38,67.8,130.41,-20.2,80,40,2.21
174,Udachnyy,RU,2020-02-22 21:32:49,66.42,112.4,-9.4,83,97,4.47
175,Sur,OM,2020-02-22 21:31:03,22.57,59.53,68.61,82,96,1.74
176,Nivala,FI,2020-02-22 21:33:52,63.92,25.0,34.0,96,100,5.01
177,Russkaya Polyana,UA,2020-02-22 21:33:52,49.42,31.92,34.84,75,99,11.36
178,San Policarpo,PH,2020-02-22 21:26:40,12.18,125.51,77.22,84,33,12.41
179,Norman Wells,CA,2020-02-22 21:26:39,65.28,-126.83,6.8,77,75,5.82
180,Cape Town,ZA,2020-02-22 21:26:04,-33.93,18.42,66.99,77,20,24.16
181,Metro,ID,2020-02-22 21:33:53,-5.11,105.31,74.43,93,67,8.77
182,Nouadhibou,MR,2020-02-22 21:32:27,20.93,-17.03,62.6,82,13,17.22
183,Chifeng,CN,2020-02-22 21:33:53,42.27,118.96,17.08,65,94,7.34
184,Ondjiva,AO,2020-02-22 21:33:53,-17.07,15.73,70.92,84,88,6.31
185,Carai,BR,2020-02-22 21:33:53,-17.19,-41.69,74.82,87,100,1.57
186,Saint-Georges,GD,2020-02-22 21:31:44,12.06,-61.75,84.2,70,75,11.41
187,Orichi,RU,2020-02-22 21:33:54,58.4,49.06,30.81,83,99,11.9
188,Syedove,UA,2020-02-22 21:33:54,47.08,38.16,37.26,92,100,9.37
189,Cabra,ES,2020-02-22 21:33:54,37.47,-4.44,55.99,81,10,3.29
190,Ugoofaaru,MV,2020-02-22 21:33:54,5.67,73.0,82.83,77,63,15.12
191,Soure,BR,2020-02-22 21:33:54,-0.72,-48.52,76.77,92,100,3.31
192,Hervey Bay,AU,2020-02-22 21:29:23,-25.3,152.85,77.0,78,75,11.41
193,Ahuimanu,US,2020-02-22 21:31:38,21.44,-157.84,79.0,78,75,13.87
194,Vygonichi,RU,2020-02-22 21:33:55,53.1,34.07,34.72,79,100,18.05
195,Ano Mera,GR,2020-02-22 21:33:55,37.45,25.4,52.0,61,0,34.45
196,Saint George,US,2020-02-22 21:24:44,37.1,-113.58,51.8,81,90,13.87
197,Fallon,US,2020-02-22 21:33:55,39.47,-118.78,57.2,34,75,5.82
198,Lasa,IT,2020-02-22 21:27:56,46.62,10.7,41.0,69,5,5.82
199,Abu Dhabi,AE,2020-02-22 21:33:38,24.47,54.37,71.6,88,0,4.7
200,Olavarria,AR,2020-02-22 21:33:56,-36.89,-60.32,77.76,19,0,4.05
201,Sao Joao Do Piaui,BR,2020-02-22 21:33:56,-8.36,-42.25,80.42,76,94,0.49
202,Kununurra,AU,2020-02-22 21:33:27,-15.77,128.73,73.4,88,58,1.12
203,Tinyahuarco,PE,2020-02-22 21:33:56,-10.75,-76.3,43.09,83,100,5.95
204,Trairi,BR,2020-02-22 21:32:10,-3.28,-39.27,73.02,96,100,1.9
205,Ilawe,NG,2020-02-22 21:33:57,7.87,4.43,84.2,37,55,4.14
206,Portland,US,2020-02-22 21:27:17,45.52,-122.68,55.99,43,75,2.26
207,Nikolskoye,RU,2020-02-22 21:25:59,59.7,30.79,35.01,93,90,13.42
208,Nantucket,US,2020-02-22 21:30:16,41.28,-70.1,41.0,55,1,23.04
209,Port Elizabeth,ZA,2020-02-22 21:26:33,-33.92,25.57,67.01,76,100,17.49
210,Buala,SB,2020-02-22 21:25:04,-8.14,159.59,81.03,80,2,3.71
211,Saint-Philippe,RE,2020-02-22 21:24:16,-21.36,55.77,75.2,69,100,6.93
212,Broome,US,2020-02-22 21:24:27,42.25,-75.83,44.01,40,1,12.75
213,Zverinogolovskoye,RU,2020-02-22 21:33:58,54.46,64.85,18.52,99,70,3.06
214,Carutapera,BR,2020-02-22 21:33:59,-1.2,-46.02,81.95,75,20,4.16
215,Port Augusta,AU,2020-02-22 21:32:02,-32.5,137.77,66.99,87,0,6.93
216,Ust-Maya,RU,2020-02-22 21:33:59,60.42,134.53,-3.33,99,99,1.07
217,Groningen,NL,2020-02-22 21:32:21,53.25,6.75,48.0,70,100,36.91
218,Les Cayes,HT,2020-02-22 21:33:59,18.2,-73.75,79.72,70,0,6.78
219,Prince Rupert,CA,2020-02-22 21:30:29,54.32,-130.32,41.0,80,40,14.99
220,Cidreira,BR,2020-02-22 21:26:52,-30.18,-50.21,70.93,67,15,17.34
221,Ketchikan,US,2020-02-22 21:34:00,55.34,-131.65,42.8,80,75,4.7
222,Hanko,FI,2020-02-22 21:32:32,59.83,22.95,39.0,96,90,15.01
223,Kasli,RU,2020-02-22 21:34:01,55.89,60.76,20.95,85,88,4.92
224,Pontian Kecil,MY,2020-02-22 21:34:01,1.48,103.39,80.6,88,20,6.93
225,Victoria,HK,2020-02-22 21:25:08,22.29,114.16,64.99,77,20,20.8
226,Itarema,BR,2020-02-22 21:32:26,-2.92,-39.92,74.1,96,100,6.11
227,Belmonte,BR,2020-02-22 21:30:19,-15.86,-38.88,86.0,66,40,14.99
228,Embonas,GR,2020-02-22 21:34:02,36.23,27.86,51.8,62,20,2.24
229,Teruel,ES,2020-02-22 21:34:03,40.67,-0.67,50.0,56,100,6.93
230,Nikolayevsk-Na-Amure,RU,2020-02-22 21:34:03,53.14,140.73,-6.54,100,89,1.95
231,Gornyy,RU,2020-02-22 21:34:03,55.12,83.91,22.77,96,100,2.21
232,Iquitos,PE,2020-02-22 21:34:03,-3.75,-73.25,86.0,74,75,10.29
233,Cherskiy,RU,2020-02-22 21:27:19,68.75,161.3,-20.52,97,96,4.97
234,Atasu,KZ,2020-02-22 21:34:04,48.68,71.64,11.14,94,100,6.89
235,Kruisfontein,ZA,2020-02-22 21:26:08,-34.0,24.73,63.36,84,100,16.15
236,Iisalmi,FI,2020-02-22 21:34:04,63.56,27.19,33.8,92,90,18.34
237,Chokurdakh,RU,2020-02-22 21:23:26,70.63,147.92,-13.88,97,100,1.48
238,San Antonio,US,2020-02-22 21:30:19,29.42,-98.49,64.99,42,1,11.41
239,Bilibino,RU,2020-02-22 21:25:06,68.05,166.44,-24.41,99,100,2.44
240,Mabaruma,GY,2020-02-22 21:34:05,8.2,-59.78,83.23,59,97,5.68
241,Konin,PL,2020-02-22 21:34:05,52.22,18.25,44.01,76,100,15.01
242,Hobyo,SO,2020-02-22 21:26:03,5.35,48.53,76.69,77,75,14.9
243,Ambilobe,MG,2020-02-22 21:32:21,-13.2,49.05,75.58,92,100,5.12
244,Manta,EC,2020-02-22 21:34:06,-0.95,-80.73,87.8,74,20,6.93
245,Yumen,CN,2020-02-22 21:27:14,40.28,97.2,29.14,38,0,5.77
246,Komsomolskiy,UZ,2020-02-22 21:28:01,40.43,71.72,44.6,86,87,6.93
247,Paso De Carrasco,UY,2020-02-22 21:34:07,-34.86,-56.05,66.2,55,20,8.05
248,Skibbereen,IE,2020-02-22 21:27:22,51.55,-9.27,44.6,100,75,14.99
249,Batemans Bay,AU,2020-02-22 21:32:42,-35.72,150.18,57.99,95,56,2.19
250,Kaitangata,NZ,2020-02-22 21:26:34,-46.28,169.85,60.01,63,66,17.0
251,Aklavik,CA,2020-02-22 21:26:28,68.22,-135.01,1.4,77,90,4.7
252,Comodoro Rivadavia,AR,2020-02-22 21:23:38,-45.87,-67.5,78.8,29,26,20.8
253,Santa Maria,BR,2020-02-22 21:28:03,-29.68,-53.81,73.4,40,0,6.93
254,Union,US,2020-02-22 21:34:08,40.63,-74.27,51.8,16,1,12.75
255,Tamandare,BR,2020-02-22 21:29:13,-8.76,-35.1,82.13,80,70,14.45
256,Peleduy,RU,2020-02-22 21:34:09,59.63,112.74,14.13,96,100,1.95
257,Saint-Francois,FR,2020-02-22 21:27:14,46.42,3.91,46.99,80,97,3.36
258,High River,CA,2020-02-22 21:29:42,50.58,-113.87,36.0,64,20,19.46
259,Mount Isa,AU,2020-02-22 21:26:42,-20.73,139.5,78.8,74,40,6.93
260,Mahibadhoo,MV,2020-02-22 21:34:09,3.78,72.97,82.65,80,63,11.27
261,Muli,MV,2020-02-22 21:28:02,2.92,73.57,83.41,76,100,14.18
262,Pangnirtung,CA,2020-02-22 21:27:30,66.15,-65.71,-31.0,59,5,2.48
263,Tuatapere,NZ,2020-02-22 21:25:59,-46.13,167.68,59.0,79,32,17.0
264,Qaqortoq,GL,2020-02-22 21:31:15,60.72,-46.03,21.2,37,100,18.34
265,Manitouwadge,CA,2020-02-22 21:34:10,49.12,-85.84,32.0,89,90,9.17
266,Saldanha,ZA,2020-02-22 21:24:05,-33.01,17.94,66.2,77,85,11.41
267,Beaupre,CA,2020-02-22 21:34:11,47.04,-70.9,34.0,68,40,16.11
268,Porto Novo,BJ,2020-02-22 21:34:11,6.5,2.6,86.0,84,20,12.75
269,Kiama,AU,2020-02-22 21:33:47,-34.68,150.87,68.0,82,100,2.24
270,Vestmannaeyjar,IS,2020-02-22 21:27:44,63.44,-20.27,34.2,60,100,5.57
271,Vila Franca Do Campo,PT,2020-02-22 21:26:29,37.72,-25.43,57.2,76,20,4.7
272,Klaksvik,FO,2020-02-22 21:26:49,62.23,-6.59,35.6,69,96,8.05
273,Thunder Bay,CA,2020-02-22 21:34:12,48.4,-89.32,43.0,60,20,6.93
274,Grindavik,IS,2020-02-22 21:26:37,63.84,-22.43,28.4,79,100,5.82
275,Nicoya,CR,2020-02-22 21:34:12,10.15,-85.45,91.4,41,59,25.28
276,Belaya Gora,RU,2020-02-22 21:34:13,68.53,146.42,-16.15,99,91,1.52
277,Paysandu,UY,2020-02-22 21:34:13,-32.32,-58.08,73.99,52,0,4.0
278,Sampit,ID,2020-02-22 21:27:39,-2.53,112.95,73.81,94,100,0.11
279,Nisia Floresta,BR,2020-02-22 21:34:13,-6.09,-35.21,82.4,83,75,8.05
280,Timaru,NZ,2020-02-22 21:34:13,-44.4,171.25,61.0,91,0,3.0
281,Puerto Madryn,AR,2020-02-22 21:34:14,-42.77,-65.04,82.9,15,0,27.98
282,Kijang,KR,2020-02-22 21:34:14,35.24,129.21,33.8,55,0,4.7
283,Jiwani,PK,2020-02-22 21:34:14,25.05,61.74,72.3,76,0,1.28
284,Taoudenni,ML,2020-02-22 21:26:23,22.68,-3.98,78.84,10,2,10.58
285,Uyskoye,RU,2020-02-22 21:34:14,54.38,60.0,14.47,92,66,2.73
286,Herat,AF,2020-02-22 21:34:14,34.5,62.0,54.97,39,18,9.48
287,Asfi,MA,2020-02-22 21:34:15,32.3,-9.24,58.82,63,0,9.13
288,Austin,US,2020-02-22 21:31:45,30.27,-97.74,64.0,41,1,9.17
289,Tiksi,RU,2020-02-22 21:26:54,71.69,128.87,-11.67,90,90,7.4
290,Algiers,DZ,2020-02-22 21:34:08,36.75,3.04,46.4,93,20,2.24
291,Sao Sebastiao,BR,2020-02-22 21:34:15,-23.76,-45.41,74.1,75,100,13.4
292,Balasing,PH,2020-02-22 21:34:16,14.85,121.01,77.0,69,40,1.12
293,Lumatil,PH,2020-02-22 21:34:16,5.87,124.89,69.28,75,33,4.94
294,Mehamn,NO,2020-02-22 21:24:45,71.04,27.85,29.44,80,55,19.22
295,Hirara,JP,2020-02-22 21:26:51,24.8,125.28,67.23,78,100,22.59
296,Bow Island,CA,2020-02-22 21:34:16,49.87,-111.37,42.8,60,40,18.34
297,Saskylakh,RU,2020-02-22 21:26:28,71.92,114.08,-13.74,93,39,5.1
298,Guerrero Negro,MX,2020-02-22 21:26:57,27.98,-114.06,63.82,63,100,14.65
299,Sitka,US,2020-02-22 21:23:32,57.05,-135.33,37.4,80,75,10.29
300,Evensk,RU,2020-02-22 21:26:46,61.95,159.23,-13.77,77,95,4.23
301,Mahebourg,MU,2020-02-22 21:26:28,-20.41,57.7,77.0,88,75,3.36
302,Marzuq,YE,2020-02-22 21:34:17,14.4,46.47,64.36,49,0,3.76
303,Cockburn Town,TC,2020-02-22 21:27:33,21.46,-71.14,78.8,74,75,9.17
304,Fuyang,CN,2020-02-22 21:34:17,32.9,115.82,42.1,65,27,7.92
305,Mogadishu,SO,2020-02-22 21:25:53,2.04,45.34,81.72,85,0,23.51
306,Wanaka,NZ,2020-02-22 21:34:18,-44.7,169.15,49.84,70,0,0.11
307,Lakes Entrance,AU,2020-02-22 21:34:18,-37.88,147.98,62.01,88,0,5.5
308,Snezhnogorsk,RU,2020-02-22 21:34:18,69.19,33.25,33.8,80,75,2.24
309,Sao Desiderio,BR,2020-02-22 21:34:18,-12.36,-44.97,76.5,85,92,4.18
310,Sisimiut,GL,2020-02-22 21:34:19,66.94,-53.67,-3.98,81,100,5.12
311,Port-Gentil,GA,2020-02-22 21:23:23,-0.72,8.78,82.4,88,20,5.82
312,Papar,MY,2020-02-22 21:34:19,5.73,115.93,73.0,83,20,4.7
313,Rio Gallegos,AR,2020-02-22 21:27:26,-51.62,-69.22,71.6,43,34,20.8
314,Severnyy-Kospashskiy,RU,2020-02-22 21:34:19,59.09,57.8,28.99,97,100,3.0
315,Rapar,IN,2020-02-22 21:34:20,23.57,70.63,72.19,40,0,10.56
316,Cape Coast,GH,2020-02-22 21:34:20,5.11,-1.25,82.24,87,32,15.1
317,Isangel,VU,2020-02-22 21:27:50,-19.55,169.27,82.4,78,20,16.35
318,Midland,US,2020-02-22 21:34:20,32.0,-102.08,64.4,45,1,10.29
319,Santa Vitoria Do Palmar,BR,2020-02-22 21:34:20,-33.52,-53.37,67.87,62,31,11.77
320,Mishan,CN,2020-02-22 21:34:21,45.55,131.88,9.68,80,14,15.64
321,Kensington,AU,2020-02-22 21:34:21,-33.92,151.22,71.01,94,90,2.24
322,Laem Sing,TH,2020-02-22 21:34:21,12.48,102.07,81.0,42,21,17.0
323,Bonavista,CA,2020-02-22 21:33:15,48.65,-53.11,24.01,72,85,10.0
324,Shimoda,JP,2020-02-22 21:33:25,34.67,138.95,50.0,65,0,1.99
325,Roald,NO,2020-02-22 21:27:53,62.58,6.13,39.2,93,75,33.33
326,Saquarema,BR,2020-02-22 21:32:30,-22.92,-42.51,77.0,83,90,13.87
327,Zanjan,IR,2020-02-22 21:34:22,36.67,48.48,30.97,83,0,4.72
328,San Jose,US,2020-02-22 21:27:53,37.34,-121.89,70.0,52,20,11.41
329,Graham,US,2020-02-22 21:34:22,47.05,-122.29,48.99,76,90,4.7
330,Longyearbyen,SJ,2020-02-22 21:26:20,78.22,15.64,-0.4,70,20,12.75
331,Araouane,ML,2020-02-22 21:23:30,18.9,-3.53,80.92,9,85,10.56
332,Napier,NZ,2020-02-22 21:30:17,-39.48,176.92,64.0,69,22,11.99
333,Tandalti,SD,2020-02-22 21:34:23,13.02,31.87,74.88,13,0,14.12
334,Goderich,CA,2020-02-22 21:30:17,43.75,-81.72,39.0,64,0,12.97
335,Katsuura,JP,2020-02-22 21:27:12,35.13,140.3,50.0,45,20,5.82
336,Nanortalik,GL,2020-02-22 21:23:48,60.14,-45.24,27.57,89,100,17.9
337,Kirando,TZ,2020-02-22 21:34:24,-7.42,30.6,77.23,78,100,4.97
338,Dalbeattie,GB,2020-02-22 21:34:24,54.93,-3.82,43.0,72,100,5.99
339,Shingu,JP,2020-02-22 21:31:13,33.73,135.98,49.55,62,0,20.4
340,Gondanglegi,ID,2020-02-22 21:34:24,-7.75,112.01,73.51,91,40,0.56
341,Oyama,JP,2020-02-22 21:34:24,36.3,139.8,51.01,28,20,12.75
342,Narsaq,GL,2020-02-22 21:27:47,60.92,-46.05,21.2,37,100,18.34
343,Taree,AU,2020-02-22 21:30:46,-31.9,152.47,70.0,100,75,3.36
344,Sokolo,ML,2020-02-22 21:34:25,14.73,-6.12,83.3,9,87,11.18
345,Abalak,RU,2020-02-22 21:34:25,58.13,68.59,7.29,97,44,2.86
346,Tazovskiy,RU,2020-02-22 21:32:26,67.47,78.7,12.22,91,100,20.22
347,Half Moon Bay,US,2020-02-22 21:26:10,37.46,-122.43,69.8,62,40,16.11
348,Kysyl-Syr,RU,2020-02-22 21:34:26,63.9,122.76,-12.26,97,100,1.83
349,Mount Hagen,PG,2020-02-22 21:34:26,-5.86,144.23,52.7,94,89,3.09
350,Saint-Joseph,RE,2020-02-22 21:27:58,-21.37,55.62,75.2,69,100,6.93
351,Ambon,ID,2020-02-22 21:27:17,-3.7,128.18,81.54,80,64,15.23
352,San Andres,CO,2020-02-22 21:26:10,12.58,-81.7,84.2,66,20,8.05
353,Krasnoshchekovo,RU,2020-02-22 21:34:27,51.67,82.73,25.61,97,100,6.89
354,Laguna,US,2020-02-22 21:26:47,38.42,-121.42,73.99,30,1,4.03
355,Natal,BR,2020-02-22 21:33:00,-5.79,-35.21,82.4,83,75,8.05
356,Pedasi,PA,2020-02-22 21:34:27,7.53,-80.03,82.62,68,100,18.59
357,Ashtabula,US,2020-02-22 21:34:28,41.7,-80.77,46.99,31,1,11.41
358,Pasinler,TR,2020-02-22 21:34:28,39.98,41.68,32.0,97,75,5.82
359,Lavrentiya,RU,2020-02-22 21:26:48,65.58,-171.0,-17.19,96,33,5.91
360,Fort Nelson,CA,2020-02-22 21:33:07,58.81,-122.7,37.4,25,40,18.34
361,Ostrovnoy,RU,2020-02-22 21:27:18,68.05,39.51,33.8,95,100,35.61
362,Manjacaze,MZ,2020-02-22 21:34:29,-24.71,33.88,75.6,90,53,3.29
363,Heihe,CN,2020-02-22 21:34:29,50.24,127.49,-7.6,83,0,2.24
364,Maragogi,BR,2020-02-22 21:33:19,-9.01,-35.22,82.13,80,70,14.45
365,Balabac,PH,2020-02-22 21:34:29,7.99,117.06,79.63,76,17,20.51
366,Bershet,RU,2020-02-22 21:30:58,57.73,56.38,32.0,96,90,8.95
367,Quatre Cocos,MU,2020-02-22 21:32:33,-20.21,57.76,77.0,88,75,3.36
368,Meulaboh,ID,2020-02-22 21:26:56,4.14,96.13,83.14,69,93,5.21
369,Ha Tinh,VN,2020-02-22 21:34:30,18.33,105.9,68.45,88,51,11.72
370,Toora-Khem,RU,2020-02-22 21:27:16,52.47,96.11,11.43,92,100,0.83
371,Seagoville,US,2020-02-22 21:34:31,32.64,-96.54,57.99,54,90,9.17
372,Tanete,ID,2020-02-22 21:34:31,-3.94,119.78,76.68,87,100,2.19
373,Bousso,TD,2020-02-22 21:34:31,10.48,16.71,82.65,10,0,9.8
374,Rovaniemi,FI,2020-02-22 21:26:30,66.5,25.72,32.0,99,90,6.93
375,Yuxia,CN,2020-02-22 21:34:31,34.06,108.63,48.99,79,1,7.2
376,Atar,MR,2020-02-22 21:27:39,20.52,-13.05,77.2,11,97,4.32
377,Cabo Rojo,PR,2020-02-22 21:34:32,18.09,-67.15,82.99,61,75,6.93
378,Gimbi,ET,2020-02-22 21:34:32,9.17,35.83,73.98,46,82,3.13
379,Yaan,NG,2020-02-22 21:34:32,7.38,8.57,86.4,14,0,2.59
380,Koslan,RU,2020-02-22 21:32:27,63.46,48.9,31.55,91,100,16.2
381,Saint Anthony,US,2020-02-22 21:26:23,45.02,-93.22,44.6,48,1,11.41
382,Lakhnau,IN,2020-02-22 21:30:03,26.85,80.92,64.4,88,90,3.6
383,Wendo,ET,2020-02-22 21:34:33,6.6,38.42,55.74,61,28,7.72
384,Lyskovo,RU,2020-02-22 21:34:33,56.03,45.04,34.0,69,67,13.11
385,Tasiilaq,GL,2020-02-22 21:24:02,65.61,-37.64,15.8,66,100,2.24
386,Moree,AU,2020-02-22 21:27:55,-29.47,149.85,69.8,64,90,8.05
387,Walvis Bay,NA,2020-02-22 21:34:33,-22.96,14.51,66.2,72,10,2.24
388,Adrar,MR,2020-02-22 21:32:50,20.5,-10.07,83.16,10,95,11.59
389,Sivas,TR,2020-02-22 21:34:34,39.79,37.0,32.0,99,90,3.36
390,Bandarbeyla,SO,2020-02-22 21:26:42,9.49,50.81,76.86,78,25,17.81
391,Sao Filipe,CV,2020-02-22 21:24:25,14.9,-24.5,67.42,82,84,20.85
392,Salalah,OM,2020-02-22 21:27:05,17.02,54.09,75.2,73,75,2.24
393,Waddan,LY,2020-02-22 21:27:38,29.16,16.14,55.47,46,0,9.44
394,Dapitan,PH,2020-02-22 21:34:35,8.65,123.42,71.71,91,11,7.76
395,Sehithwa,BW,2020-02-22 21:34:35,-20.47,22.72,78.51,55,20,1.95
396,Vao,NC,2020-02-22 21:26:22,-22.67,167.48,79.23,73,0,10.69
397,Paharpur,PK,2020-02-22 21:34:35,32.1,70.97,61.79,56,0,3.96
398,Plettenberg Bay,ZA,2020-02-22 21:27:54,-34.05,23.37,65.5,87,100,13.29
399,Naze,JP,2020-02-22 21:27:43,28.37,129.48,60.8,59,75,13.87
400,Vostok,RU,2020-02-22 21:33:49,46.49,135.88,8.71,96,100,5.01
401,Clarence Town,AU,2020-02-22 21:34:36,-32.58,151.78,75.0,82,100,1.81
402,Bambanglipuro,ID,2020-02-22 21:31:22,-7.95,110.28,74.84,91,29,1.79
403,Wicklow,IE,2020-02-22 21:34:37,53.0,-6.42,45.0,93,75,19.46
404,Poum,NC,2020-02-22 21:33:30,-20.23,164.02,80.56,81,0,18.79
405,Presidente Medici,BR,2020-02-22 21:34:37,-11.18,-61.9,71.53,96,100,7.72
406,Bubaque,GW,2020-02-22 21:33:43,11.28,-15.83,79.5,71,100,19.66
407,Moyale,KE,2020-02-22 21:33:41,3.52,39.06,81.14,31,1,13.85
408,Mana,GF,2020-02-22 21:34:37,5.66,-53.78,81.18,76,100,6.67
409,Cehal,RO,2020-02-22 21:34:38,47.38,22.6,39.2,74,88,8.05
410,Khanpur,PK,2020-02-22 21:34:38,28.65,70.66,64.51,51,0,4.9
411,Berlevag,NO,2020-02-22 21:26:56,70.86,29.09,36.25,77,0,31.68
412,Barra Da Estiva,BR,2020-02-22 21:34:38,-13.63,-41.33,73.58,81,100,3.11
413,Nuuk,GL,2020-02-22 21:29:41,64.18,-51.72,14.0,72,90,16.11
414,Ebebiyin,GQ,2020-02-22 21:34:39,2.15,11.34,70.95,94,33,2.89
415,Kavieng,PG,2020-02-22 21:24:01,-2.57,150.8,83.43,73,13,5.53
416,Port Macquarie,AU,2020-02-22 21:34:39,-31.43,152.92,68.0,100,75,3.36
417,Esmeraldas,BR,2020-02-22 21:34:39,-19.76,-44.31,84.2,51,40,6.93
418,Ixtapa,MX,2020-02-22 21:31:05,20.7,-105.2,84.2,62,5,9.17
419,Asau,RO,2020-02-22 21:26:43,46.43,26.4,34.0,80,0,5.82
420,Sveti Nikole,MK,2020-02-22 21:34:40,41.87,21.95,30.2,86,0,2.24
421,Columbia,US,2020-02-22 21:33:11,34.0,-81.03,55.99,27,1,3.36
422,Ilulissat,GL,2020-02-22 21:26:20,69.22,-51.1,-0.4,54,20,5.82
423,Nadezhda,RU,2020-02-22 21:34:40,44.1,44.6,39.06,83,100,5.99
424,Concepcion,CL,2020-02-22 21:32:34,-36.83,-73.05,68.0,60,20,10.29
425,Wilmslow,GB,2020-02-22 21:34:41,53.33,-2.23,48.2,81,75,13.87
426,Aksha,RU,2020-02-22 21:34:41,50.28,113.29,8.29,87,67,3.87
427,Labuhan,ID,2020-02-22 21:34:41,-6.88,112.21,75.04,92,100,2.55
428,Lieksa,FI,2020-02-22 21:34:41,63.32,30.02,34.86,96,100,17.9
429,Makakilo City,US,2020-02-22 21:27:09,21.35,-158.09,79.0,57,75,11.41
430,Acapulco,MX,2020-02-22 21:32:15,16.86,-99.89,84.2,74,5,10.29
431,Ishigaki,JP,2020-02-22 21:24:21,24.34,124.16,68.0,82,40,18.34
432,Litovko,RU,2020-02-22 21:34:42,49.24,135.17,5.18,80,92,1.88
433,Sopur,IN,2020-02-22 21:34:42,34.3,74.47,30.6,36,34,8.57
434,Port Angeles,US,2020-02-22 21:34:43,48.12,-123.43,48.2,70,1,5.82
435,Puerto Leguizamo,CO,2020-02-22 21:27:07,-0.19,-74.78,94.06,44,93,3.33
436,Anadyr,RU,2020-02-22 21:30:11,64.75,177.48,-16.6,68,0,6.71
437,Las Varas,MX,2020-02-22 21:34:43,21.17,-105.17,87.8,48,40,8.05
438,Zeya,RU,2020-02-22 21:34:43,53.75,127.27,-10.12,100,68,1.77
439,Pangody,RU,2020-02-22 21:34:44,65.85,74.49,13.75,92,100,20.29
440,Muromtsevo,RU,2020-02-22 21:34:44,56.37,75.24,10.6,96,78,4.29
441,Skelleftea,SE,2020-02-22 21:34:44,64.75,20.95,35.6,93,100,11.41
442,Porgera,PG,2020-02-22 21:34:44,-5.47,143.2,50.59,98,96,1.54
443,Darhan,MN,2020-02-22 21:32:13,49.49,105.92,12.4,82,100,3.04
444,Kandrian,PG,2020-02-22 21:34:44,-6.22,149.55,76.84,86,43,6.89
445,Berbera,SO,2020-02-22 21:34:45,10.44,45.01,77.09,81,9,10.67
446,Madaoua,NE,2020-02-22 21:34:45,14.07,5.96,78.28,10,0,14.92
447,Pacifica,US,2020-02-22 21:34:45,37.61,-122.49,69.8,62,40,16.11
448,Havre-Saint-Pierre,CA,2020-02-22 21:23:52,50.23,-63.6,26.6,86,75,16.11
449,Praia Da Vitoria,PT,2020-02-22 21:30:25,38.73,-27.07,55.4,82,40,5.37
450,Hambantota,LK,2020-02-22 21:33:17,6.12,81.12,79.25,83,100,22.68
451,Kathmandu,NP,2020-02-22 21:34:03,27.72,85.32,48.2,100,20,4.7
452,Hay River,CA,2020-02-22 21:32:47,60.82,-115.8,6.8,77,75,8.05
453,Nyimba,ZM,2020-02-22 21:34:46,-14.56,30.81,69.37,96,100,3.58
454,Alofi,NU,2020-02-22 21:27:01,-19.06,-169.92,80.22,88,44,10.51
455,Koulamoutou,GA,2020-02-22 21:34:46,-1.13,12.47,74.66,94,79,1.68
456,Loikaw,MM,2020-02-22 21:33:42,19.67,97.21,61.18,61,30,3.09
457,Kletnya,RU,2020-02-22 21:34:47,53.39,33.22,35.62,82,100,17.13
458,Qasigiannguit,GL,2020-02-22 21:33:26,68.82,-51.19,-0.4,54,20,5.82
459,Porto Walter,BR,2020-02-22 21:34:47,-8.27,-72.74,74.89,97,100,2.26
460,Floro,NO,2020-02-22 21:34:47,61.6,5.03,41.0,80,92,17.22
461,Sydney,AU,2020-02-22 21:32:35,-33.87,151.21,71.01,94,90,2.24
462,Manadhoo,MV,2020-02-22 21:34:48,5.77,73.38,83.08,77,100,16.78
463,Haines Junction,CA,2020-02-22 21:31:41,60.75,-137.51,12.29,93,99,6.06
464,Muravlenko,RU,2020-02-22 21:26:39,63.79,74.52,9.07,85,97,22.79
465,Barroquinha,BR,2020-02-22 21:34:48,-3.02,-41.14,78.8,94,90,4.7
466,Mananjary,MG,2020-02-22 21:34:48,-21.22,48.33,77.07,85,99,8.63
467,Suez,EG,2020-02-22 21:27:19,29.97,32.53,58.68,60,100,8.66
468,Lucapa,AO,2020-02-22 21:34:49,-8.42,20.74,71.22,89,100,0.51
469,Panzhihua,CN,2020-02-22 21:34:49,26.59,101.71,47.01,63,0,1.77
470,Finschhafen,PG,2020-02-22 21:34:49,-6.6,147.87,82.49,82,100,13.94
471,Cabo San Lucas,MX,2020-02-22 21:23:09,22.89,-109.91,84.2,35,40,9.17
472,Havoysund,NO,2020-02-22 21:34:49,71.0,24.66,32.0,70,84,13.87
473,Den Helder,NL,2020-02-22 21:34:49,52.96,4.76,48.99,66,90,17.22
474,Isiolo,KE,2020-02-22 21:34:50,0.35,37.58,76.37,59,18,4.43
475,Bani Walid,LY,2020-02-22 21:34:50,31.76,13.99,54.07,70,96,14.38
476,Lalmohan,BD,2020-02-22 21:34:50,22.34,90.74,66.74,55,0,3.36
477,Rincon,US,2020-02-22 21:34:50,32.3,-81.24,57.0,24,20,3.36
478,La Rioja,ES,2020-02-22 21:27:23,42.25,-2.5,45.0,75,3,2.24
479,Camacha,PT,2020-02-22 21:26:36,33.08,-16.33,64.4,88,40,27.51
480,Kupang,ID,2020-02-22 21:34:51,-10.17,123.58,77.0,100,20,2.24
481,Cervo,ES,2020-02-22 21:27:38,43.67,-7.41,50.0,90,26,1.01
482,Bauchi,NG,2020-02-22 21:34:51,10.5,10.0,76.12,18,73,7.67
483,Namibe,AO,2020-02-22 21:24:45,-15.2,12.15,75.34,79,100,15.39
484,Tura,IN,2020-02-22 21:27:15,25.52,90.22,67.06,47,29,4.07
485,Barcelos,PT,2020-02-22 21:23:25,41.54,-8.62,59.0,87,0,2.24
486,Antofagasta,CL,2020-02-22 21:32:19,-23.65,-70.4,72.0,68,20,16.11
487,Sakaiminato,JP,2020-02-22 21:33:31,35.55,133.23,44.6,52,75,13.87
488,Bathsheba,BB,2020-02-22 21:27:30,13.22,-59.52,82.4,69,20,9.17
489,Marawi,PH,2020-02-22 21:27:44,8.0,124.29,71.01,89,26,3.0
490,Santiago Del Estero,AR,2020-02-22 21:34:11,-27.8,-64.26,78.48,32,0,9.08
491,The Pas,CA,2020-02-22 21:27:49,53.83,-101.25,39.2,48,20,9.17
492,Tessalit,ML,2020-02-22 21:33:14,20.2,1.01,75.79,9,99,10.51
493,Darnah,LY,2020-02-22 21:34:53,32.77,22.64,55.81,68,87,18.79
494,Lakselv,NO,2020-02-22 21:34:53,70.05,24.97,33.8,69,1,48.32
495,Vanimo,PG,2020-02-22 21:32:09,-2.67,141.3,81.27,80,36,9.95
496,Waverley,ZA,2020-02-22 21:32:29,-25.7,28.26,68.0,93,93,6.93
497,Liku,ID,2020-02-22 21:34:54,-0.73,119.89,69.35,94,89,0.74
498,Benoy,TD,2020-02-22 21:34:54,8.98,16.32,83.03,14,0,7.11
499,Puerto Carreno,CO,2020-02-22 21:34:49,6.19,-67.49,98.6,35,75,5.82
500,Salinopolis,BR,2020-02-22 21:26:49,-0.61,-47.36,80.82,81,100,8.39
501,Kendari,ID,2020-02-22 21:32:05,-3.94,122.5,74.95,93,98,1.52
502,Vallenar,CL,2020-02-22 21:34:55,-28.57,-70.76,71.51,56,0,10.47
503,Pacific Grove,US,2020-02-22 21:31:46,36.62,-121.92,64.99,76,90,11.41
504,Grants,US,2020-02-22 21:34:55,35.15,-107.85,42.8,93,90,5.82
505,Bardiyah,LY,2020-02-22 21:34:56,31.76,25.09,56.73,70,54,14.92
506,Tommot,RU,2020-02-22 21:33:48,58.96,126.29,10.0,96,100,5.12
507,Zastron,ZA,2020-02-22 21:34:57,-30.3,27.08,63.84,75,33,5.7
508,Itoman,JP,2020-02-22 21:34:57,26.12,127.67,62.6,63,20,11.41
509,Dzaoudzi,YT,2020-02-22 21:34:58,-12.79,45.27,84.2,83,75,12.75
510,Mayo,US,2020-02-22 21:27:01,38.89,-76.51,55.0,18,1,6.93
511,Nogent-Le-Rotrou,FR,2020-02-22 21:34:59,48.33,1.0,51.8,81,90,12.75
512,Lepe,ES,2020-02-22 21:34:59,37.25,-7.2,62.01,43,2,1.99
513,Nabire,ID,2020-02-22 21:31:13,-3.37,135.48,71.65,97,100,1.48
514,Takaka,NZ,2020-02-22 21:35:00,-40.85,172.8,64.99,65,7,5.01
515,La Asuncion,VE,2020-02-22 21:35:00,11.03,-63.86,73.4,73,100,16.11
516,Puro,PH,2020-02-22 21:35:00,12.48,123.38,74.88,85,37,11.3
517,Soe,ID,2020-02-22 21:35:00,-9.86,124.28,75.15,82,47,2.28
518,Camacupa,AO,2020-02-22 21:35:01,-12.02,17.48,65.14,90,100,3.31
519,Senador Jose Porfirio,BR,2020-02-22 21:32:10,-2.59,-51.95,80.02,91,100,1.88
520,Pemba,MZ,2020-02-22 21:35:02,-12.97,40.52,78.8,94,75,6.93
521,Mandalgovi,MN,2020-02-22 21:35:02,45.76,106.27,19.24,58,100,9.66
522,Buraydah,SA,2020-02-22 21:30:44,26.33,43.98,64.4,42,0,9.17
523,Pontes E Lacerda,BR,2020-02-22 21:35:03,-15.23,-59.34,63.1,98,100,2.46
524,Alberton,CA,2020-02-22 21:35:03,46.82,-64.07,28.99,27,90,14.43
525,Miandrivazo,MG,2020-02-22 21:35:03,-19.52,45.47,75.07,91,100,1.86
526,Jiaocheng,CN,2020-02-22 21:35:03,24.68,116.14,58.8,88,63,1.88
527,Nemuro,JP,2020-02-22 21:27:10,43.32,145.57,32.99,77,1,24.58
528,Masuguru,TZ,2020-02-22 21:35:04,-11.37,38.42,75.67,91,100,3.11
529,Aktau,KZ,2020-02-22 21:35:04,43.65,51.2,33.8,86,100,4.47
530,Black River,JM,2020-02-22 21:35:04,18.03,-77.85,82.4,65,20,14.99
531,Porangatu,BR,2020-02-22 21:35:04,-13.44,-49.15,78.01,92,100,3.33
532,Ler,SS,2020-02-22 21:35:05,8.3,30.14,84.2,14,35,1.7
533,Kambove,CD,2020-02-22 21:35:05,-10.88,26.6,64.49,92,100,1.07
534,Nouna,BF,2020-02-22 21:35:05,12.73,-3.87,83.64,9,17,8.48
535,Sfantu Gheorghe,RO,2020-02-22 21:25:13,45.87,25.78,32.0,84,15,1.01
536,Bozdar,PK,2020-02-22 21:35:05,27.18,68.64,66.52,40,0,3.65
537,Jiancheng,CN,2020-02-22 21:35:05,30.39,104.55,54.0,81,40,3.8
538,Mulchen,CL,2020-02-22 21:35:06,-37.72,-72.23,84.2,37,0,9.17
539,Svetlogorsk,BY,2020-02-22 21:27:34,52.63,29.73,38.52,72,100,20.51
540,Terney,RU,2020-02-22 21:35:06,45.05,136.61,16.63,72,100,16.15
541,Bukan,IR,2020-02-22 21:35:06,36.52,46.21,33.53,86,99,3.85
542,Tecoanapa,MX,2020-02-22 21:27:00,16.52,-98.75,92.07,36,0,10.56
543,Leshukonskoye,RU,2020-02-22 21:35:07,64.9,45.76,33.04,82,100,16.71
544,Codrington,AU,2020-02-22 21:24:00,-38.27,141.97,58.05,77,0,7.23
545,Cayenne,GF,2020-02-22 21:22:34,4.93,-52.33,82.4,78,90,11.41
546,Bilma,NE,2020-02-22 21:26:59,18.69,12.92,71.37,14,100,13.78
547,San Cristobal,VE,2020-02-22 21:22:51,7.77,-72.22,84.2,58,40,12.75
548,Dondo,MZ,2020-02-22 21:35:08,-19.61,34.74,80.6,88,99,5.82
549,Yar-Sale,RU,2020-02-22 21:26:59,66.83,70.83,20.55,90,93,18.79
550,Kholm-Zhirkovskiy,RU,2020-02-22 21:35:08,55.52,33.47,34.41,84,100,25.41
551,Aranos,NA,2020-02-22 21:35:08,-24.13,19.12,71.6,79,69,11.95
552,Parkes,AU,2020-02-22 21:35:08,-33.13,148.18,68.14,67,100,9.93
553,Puranpur,IN,2020-02-22 21:35:08,28.52,80.15,59.34,73,4,3.76
554,Sarangani,PH,2020-02-22 21:23:05,5.4,125.46,80.56,76,58,20.15
555,Upington,ZA,2020-02-22 21:35:09,-28.45,21.26,77.0,25,0,9.17
556,Sterlibashevo,RU,2020-02-22 21:35:09,53.44,55.26,20.59,94,50,3.69
557,Ongandjera,NA,2020-02-22 21:35:09,-17.88,15.07,84.16,33,95,6.58
558,Carmen,MX,2020-02-22 21:35:09,18.63,-91.83,78.8,61,75,12.75
559,Kutum,SD,2020-02-22 21:26:50,14.2,24.67,58.91,17,23,5.32
560,Minnedosa,CA,2020-02-22 21:35:10,50.25,-99.84,30.2,68,40,10.29
561,Khandyga,RU,2020-02-22 21:35:10,62.67,135.6,-4.25,98,98,1.7
562,Zhumadian,CN,2020-02-22 21:35:10,32.98,114.03,42.84,72,14,5.86
563,Bondo,CD,2020-02-22 21:35:11,3.81,23.69,77.9,32,67,2.35
564,Auchel,FR,2020-02-22 21:35:11,50.5,2.47,51.01,87,75,19.46
565,Ranau,MY,2020-02-22 21:35:11,5.95,116.66,73.0,83,20,4.7
566,Airai,TL,2020-02-22 21:24:13,-8.93,125.41,66.29,82,8,4.83
567,Westport,US,2020-02-22 21:30:29,41.14,-73.36,51.01,42,1,13.87
568,Liverpool,GB,2020-02-22 21:33:00,53.41,-2.98,48.2,76,75,19.46
569,Huanren,CN,2020-02-22 21:33:45,41.26,125.37,4.5,91,0,2.64
570,Galbshtadt,RU,2020-02-22 21:35:12,53.23,78.98,17.22,96,84,6.15
571,Turan,VN,2020-02-22 21:35:12,16.07,108.22,68.0,94,40,1.12
572,Acarau,BR,2020-02-22 21:35:12,-2.89,-40.12,74.1,96,100,6.11
573,Porto Nacional,BR,2020-02-22 21:35:12,-10.71,-48.42,80.17,87,100,0.69
574,Waingapu,ID,2020-02-22 21:24:37,-9.66,120.26,82.98,78,100,20.67
575,Agirish,RU,2020-02-22 21:31:33,61.92,63.02,20.23,91,33,10.4
576,Aktash,RU,2020-02-22 21:35:13,50.3,87.73,20.93,96,100,3.6
577,Tiznit,MA,2020-02-22 21:34:47,29.58,-9.5,65.12,18,0,18.1
578,Bellevue,US,2020-02-22 21:30:41,47.61,-122.2,48.99,81,90,2.37
579,Doha,QA,2020-02-22 21:30:56,25.29,51.53,69.01,93,0,3.36
580,Monrovia,LR,2020-02-22 21:35:14,6.3,-10.8,80.6,83,20,9.04
581,Coruripe,BR,2020-02-22 21:35:14,-10.13,-36.18,81.48,82,7,15.23
582,Najran,SA,2020-02-22 21:35:15,17.49,44.13,71.6,30,12,1.97
583,Linxia,CN,2020-02-22 21:35:15,35.6,103.21,33.96,21,23,4.81
584,Det Udom,TH,2020-02-22 21:35:15,14.91,105.08,69.8,73,0,9.17
585,Kanniyakumari,IN,2020-02-22 21:27:28,8.08,77.57,79.48,80,100,28.45
586,Oga,IT,2020-02-22 21:33:11,46.46,10.35,39.0,73,100,3.36
587,Valparaiso,CL,2020-02-22 21:30:56,-33.04,-71.63,69.8,56,0,11.41
588,Dingle,PH,2020-02-22 21:26:52,11.0,122.67,70.03,90,0,11.03
589,Barrancabermeja,CO,2020-02-22 21:35:16,7.07,-73.85,91.4,52,40,4.7
590,Bima,ID,2020-02-22 21:33:45,-8.47,118.72,71.71,96,100,1.9
591,Bud,US,2020-02-22 21:33:06,39.45,-86.18,50.0,26,1,9.17
592,Naron,ES,2020-02-22 21:35:16,43.52,-8.15,48.99,100,1,1.12
